[{"CIUDAD_DEPARTAMENTO":"Medellin - Antioquia","CIUDAD":"Medellin","DEPARTAMENTO":"Antioquia","LATITUD":6.257590259,"LONGITUD":-75.611031065},{"CIUDAD_DEPARTAMENTO":"Abejorral - Antioquia","CIUDAD":"Abejorral","DEPARTAMENTO":"Antioquia","LATITUD":5.803728154,"LONGITUD":-75.438473525},{"CIUDAD_DEPARTAMENTO":"Abriaqui - Antioquia","CIUDAD":"Abriaqui","DEPARTAMENTO":"Antioquia","LATITUD":6.627569378,"LONGITUD":-76.085977561},{"CIUDAD_DEPARTAMENTO":"Alejandria - Antioquia","CIUDAD":"Alejandria","DEPARTAMENTO":"Antioquia","LATITUD":6.365534125,"LONGITUD":-75.090597022},{"CIUDAD_DEPARTAMENTO":"Amaga - Antioquia","CIUDAD":"Amaga","DEPARTAMENTO":"Antioquia","LATITUD":6.032921994,"LONGITUD":-75.708003098},{"CIUDAD_DEPARTAMENTO":"Amalfi - Antioquia","CIUDAD":"Amalfi","DEPARTAMENTO":"Antioquia","LATITUD":6.977788843,"LONGITUD":-74.981239298},{"CIUDAD_DEPARTAMENTO":"Andes - Antioquia","CIUDAD":"Andes","DEPARTAMENTO":"Antioquia","LATITUD":5.604993248,"LONGITUD":-75.941283908},{"CIUDAD_DEPARTAMENTO":"Angelopolis - Antioquia","CIUDAD":"Angelopolis","DEPARTAMENTO":"Antioquia","LATITUD":6.121430303,"LONGITUD":-75.715949663},{"CIUDAD_DEPARTAMENTO":"Angostura - Antioquia","CIUDAD":"Angostura","DEPARTAMENTO":"Antioquia","LATITUD":6.861498764,"LONGITUD":-75.358315997},{"CIUDAD_DEPARTAMENTO":"Anori - Antioquia","CIUDAD":"Anori","DEPARTAMENTO":"Antioquia","LATITUD":7.193110778,"LONGITUD":-75.108489539},{"CIUDAD_DEPARTAMENTO":"Santa Fe De Antioquia - Antioquia","CIUDAD":"Santa Fe De Antioquia","DEPARTAMENTO":"Antioquia","LATITUD":6.535711576,"LONGITUD":-75.904266579},{"CIUDAD_DEPARTAMENTO":"Anza - Antioquia","CIUDAD":"Anza","DEPARTAMENTO":"Antioquia","LATITUD":6.293546613,"LONGITUD":-75.917369269},{"CIUDAD_DEPARTAMENTO":"Apartado - Antioquia","CIUDAD":"Apartado","DEPARTAMENTO":"Antioquia","LATITUD":7.86047815,"LONGITUD":-76.582362643},{"CIUDAD_DEPARTAMENTO":"Arboletes - Antioquia","CIUDAD":"Arboletes","DEPARTAMENTO":"Antioquia","LATITUD":8.611395262,"LONGITUD":-76.414783173},{"CIUDAD_DEPARTAMENTO":"Argelia - Antioquia","CIUDAD":"Argelia","DEPARTAMENTO":"Antioquia","LATITUD":5.708114524,"LONGITUD":-75.094697954},{"CIUDAD_DEPARTAMENTO":"Armenia - Antioquia","CIUDAD":"Armenia","DEPARTAMENTO":"Antioquia","LATITUD":6.163683758,"LONGITUD":-75.809955281},{"CIUDAD_DEPARTAMENTO":"Barbosa - Antioquia","CIUDAD":"Barbosa","DEPARTAMENTO":"Antioquia","LATITUD":6.443417935,"LONGITUD":-75.329240854},{"CIUDAD_DEPARTAMENTO":"Belmira - Antioquia","CIUDAD":"Belmira","DEPARTAMENTO":"Antioquia","LATITUD":6.665853953,"LONGITUD":-75.68621659},{"CIUDAD_DEPARTAMENTO":"Bello - Antioquia","CIUDAD":"Bello","DEPARTAMENTO":"Antioquia","LATITUD":6.358841086,"LONGITUD":-75.589735878},{"CIUDAD_DEPARTAMENTO":"Betania - Antioquia","CIUDAD":"Betania","DEPARTAMENTO":"Antioquia","LATITUD":5.727081285,"LONGITUD":-75.986891074},{"CIUDAD_DEPARTAMENTO":"Betulia - Antioquia","CIUDAD":"Betulia","DEPARTAMENTO":"Antioquia","LATITUD":6.185783612,"LONGITUD":-75.956492463},{"CIUDAD_DEPARTAMENTO":"Ciudad Bolivar - Antioquia","CIUDAD":"Ciudad Bolivar","DEPARTAMENTO":"Antioquia","LATITUD":5.840995666,"LONGITUD":-76.010652526},{"CIUDAD_DEPARTAMENTO":"Briceño - Antioquia","CIUDAD":"Briceño","DEPARTAMENTO":"Antioquia","LATITUD":7.111788462,"LONGITUD":-75.562234738},{"CIUDAD_DEPARTAMENTO":"Buritica - Antioquia","CIUDAD":"Buritica","DEPARTAMENTO":"Antioquia","LATITUD":6.80906489,"LONGITUD":-75.912065947},{"CIUDAD_DEPARTAMENTO":"Caceres - Antioquia","CIUDAD":"Caceres","DEPARTAMENTO":"Antioquia","LATITUD":7.665155105,"LONGITUD":-75.223697441},{"CIUDAD_DEPARTAMENTO":"Caicedo - Antioquia","CIUDAD":"Caicedo","DEPARTAMENTO":"Antioquia","LATITUD":6.423463639,"LONGITUD":-75.99351498},{"CIUDAD_DEPARTAMENTO":"Caldas - Antioquia","CIUDAD":"Caldas","DEPARTAMENTO":"Antioquia","LATITUD":6.054446841,"LONGITUD":-75.626426743},{"CIUDAD_DEPARTAMENTO":"Campamento - Antioquia","CIUDAD":"Campamento","DEPARTAMENTO":"Antioquia","LATITUD":7.036017478,"LONGITUD":-75.287661778},{"CIUDAD_DEPARTAMENTO":"Cañasgordas - Antioquia","CIUDAD":"Cañasgordas","DEPARTAMENTO":"Antioquia","LATITUD":6.814950023,"LONGITUD":-76.02689632},{"CIUDAD_DEPARTAMENTO":"Caracoli - Antioquia","CIUDAD":"Caracoli","DEPARTAMENTO":"Antioquia","LATITUD":6.33797388,"LONGITUD":-74.733548173},{"CIUDAD_DEPARTAMENTO":"Caramanta - Antioquia","CIUDAD":"Caramanta","DEPARTAMENTO":"Antioquia","LATITUD":5.555275296,"LONGITUD":-75.630820964},{"CIUDAD_DEPARTAMENTO":"Carepa - Antioquia","CIUDAD":"Carepa","DEPARTAMENTO":"Antioquia","LATITUD":7.757967437,"LONGITUD":-76.643746573},{"CIUDAD_DEPARTAMENTO":"El Carmen De Viboral - Antioquia","CIUDAD":"El Carmen De Viboral","DEPARTAMENTO":"Antioquia","LATITUD":5.978078841,"LONGITUD":-75.263536102},{"CIUDAD_DEPARTAMENTO":"Carolina - Antioquia","CIUDAD":"Carolina","DEPARTAMENTO":"Antioquia","LATITUD":6.754821442,"LONGITUD":-75.305906539},{"CIUDAD_DEPARTAMENTO":"Caucasia - Antioquia","CIUDAD":"Caucasia","DEPARTAMENTO":"Antioquia","LATITUD":7.867941792,"LONGITUD":-75.035018239},{"CIUDAD_DEPARTAMENTO":"Chigorodo - Antioquia","CIUDAD":"Chigorodo","DEPARTAMENTO":"Antioquia","LATITUD":7.631665644,"LONGITUD":-76.639642127},{"CIUDAD_DEPARTAMENTO":"Cisneros - Antioquia","CIUDAD":"Cisneros","DEPARTAMENTO":"Antioquia","LATITUD":6.550065431,"LONGITUD":-75.08254116},{"CIUDAD_DEPARTAMENTO":"Cocorna - Antioquia","CIUDAD":"Cocorna","DEPARTAMENTO":"Antioquia","LATITUD":6.005593074,"LONGITUD":-75.160154033},{"CIUDAD_DEPARTAMENTO":"Concepcion - Antioquia","CIUDAD":"Concepcion","DEPARTAMENTO":"Antioquia","LATITUD":6.376106187,"LONGITUD":-75.217859014},{"CIUDAD_DEPARTAMENTO":"Concordia - Antioquia","CIUDAD":"Concordia","DEPARTAMENTO":"Antioquia","LATITUD":6.057468678,"LONGITUD":-75.900146783},{"CIUDAD_DEPARTAMENTO":"Copacabana - Antioquia","CIUDAD":"Copacabana","DEPARTAMENTO":"Antioquia","LATITUD":6.351882893,"LONGITUD":-75.50075633},{"CIUDAD_DEPARTAMENTO":"Dabeiba - Antioquia","CIUDAD":"Dabeiba","DEPARTAMENTO":"Antioquia","LATITUD":6.992243782,"LONGITUD":-76.314263284},{"CIUDAD_DEPARTAMENTO":"Donmatias - Antioquia","CIUDAD":"Donmatias","DEPARTAMENTO":"Antioquia","LATITUD":6.492403905,"LONGITUD":-75.422276872},{"CIUDAD_DEPARTAMENTO":"Ebejico - Antioquia","CIUDAD":"Ebejico","DEPARTAMENTO":"Antioquia","LATITUD":6.326444922,"LONGITUD":-75.783311748},{"CIUDAD_DEPARTAMENTO":"El Bagre - Antioquia","CIUDAD":"El Bagre","DEPARTAMENTO":"Antioquia","LATITUD":7.704633351,"LONGITUD":-74.664277263},{"CIUDAD_DEPARTAMENTO":"Entrerrios - Antioquia","CIUDAD":"Entrerrios","DEPARTAMENTO":"Antioquia","LATITUD":6.594656004,"LONGITUD":-75.559130833},{"CIUDAD_DEPARTAMENTO":"Envigado - Antioquia","CIUDAD":"Envigado","DEPARTAMENTO":"Antioquia","LATITUD":6.154394922,"LONGITUD":-75.546867788},{"CIUDAD_DEPARTAMENTO":"Fredonia - Antioquia","CIUDAD":"Fredonia","DEPARTAMENTO":"Antioquia","LATITUD":5.887702934,"LONGITUD":-75.679262419},{"CIUDAD_DEPARTAMENTO":"Frontino - Antioquia","CIUDAD":"Frontino","DEPARTAMENTO":"Antioquia","LATITUD":6.691364773,"LONGITUD":-76.33199656},{"CIUDAD_DEPARTAMENTO":"Giraldo - Antioquia","CIUDAD":"Giraldo","DEPARTAMENTO":"Antioquia","LATITUD":6.663095863,"LONGITUD":-75.948046628},{"CIUDAD_DEPARTAMENTO":"Girardota - Antioquia","CIUDAD":"Girardota","DEPARTAMENTO":"Antioquia","LATITUD":6.379745895,"LONGITUD":-75.447957442},{"CIUDAD_DEPARTAMENTO":"Gomez Plata - Antioquia","CIUDAD":"Gomez Plata","DEPARTAMENTO":"Antioquia","LATITUD":6.709562839,"LONGITUD":-75.192702912},{"CIUDAD_DEPARTAMENTO":"Granada - Antioquia","CIUDAD":"Granada","DEPARTAMENTO":"Antioquia","LATITUD":6.123380721,"LONGITUD":-75.127636463},{"CIUDAD_DEPARTAMENTO":"Guadalupe - Antioquia","CIUDAD":"Guadalupe","DEPARTAMENTO":"Antioquia","LATITUD":6.861576325,"LONGITUD":-75.225913027},{"CIUDAD_DEPARTAMENTO":"Guarne - Antioquia","CIUDAD":"Guarne","DEPARTAMENTO":"Antioquia","LATITUD":6.266625703,"LONGITUD":-75.437308008},{"CIUDAD_DEPARTAMENTO":"Guatape - Antioquia","CIUDAD":"Guatape","DEPARTAMENTO":"Antioquia","LATITUD":6.236329826,"LONGITUD":-75.156512723},{"CIUDAD_DEPARTAMENTO":"Heliconia - Antioquia","CIUDAD":"Heliconia","DEPARTAMENTO":"Antioquia","LATITUD":6.214511788,"LONGITUD":-75.749710019},{"CIUDAD_DEPARTAMENTO":"Hispania - Antioquia","CIUDAD":"Hispania","DEPARTAMENTO":"Antioquia","LATITUD":5.797039002,"LONGITUD":-75.906692028},{"CIUDAD_DEPARTAMENTO":"Itagüi - Antioquia","CIUDAD":"Itagüi","DEPARTAMENTO":"Antioquia","LATITUD":6.179279438,"LONGITUD":-75.614203699},{"CIUDAD_DEPARTAMENTO":"Ituango - Antioquia","CIUDAD":"Ituango","DEPARTAMENTO":"Antioquia","LATITUD":7.341549718,"LONGITUD":-75.678422773},{"CIUDAD_DEPARTAMENTO":"Jardin - Antioquia","CIUDAD":"Jardin","DEPARTAMENTO":"Antioquia","LATITUD":5.574444339,"LONGITUD":-75.818425748},{"CIUDAD_DEPARTAMENTO":"Jerico - Antioquia","CIUDAD":"Jerico","DEPARTAMENTO":"Antioquia","LATITUD":5.769820536,"LONGITUD":-75.764882556},{"CIUDAD_DEPARTAMENTO":"La Ceja - Antioquia","CIUDAD":"La Ceja","DEPARTAMENTO":"Antioquia","LATITUD":5.992524843,"LONGITUD":-75.430869347},{"CIUDAD_DEPARTAMENTO":"La Estrella - Antioquia","CIUDAD":"La Estrella","DEPARTAMENTO":"Antioquia","LATITUD":6.137595883,"LONGITUD":-75.648954991},{"CIUDAD_DEPARTAMENTO":"La Pintada - Antioquia","CIUDAD":"La Pintada","DEPARTAMENTO":"Antioquia","LATITUD":5.746583958,"LONGITUD":-75.60220206},{"CIUDAD_DEPARTAMENTO":"La Union - Antioquia","CIUDAD":"La Union","DEPARTAMENTO":"Antioquia","LATITUD":5.940434685,"LONGITUD":-75.354290227},{"CIUDAD_DEPARTAMENTO":"Liborina - Antioquia","CIUDAD":"Liborina","DEPARTAMENTO":"Antioquia","LATITUD":6.723990935,"LONGITUD":-75.783000458},{"CIUDAD_DEPARTAMENTO":"Maceo - Antioquia","CIUDAD":"Maceo","DEPARTAMENTO":"Antioquia","LATITUD":6.534573585,"LONGITUD":-74.714108541},{"CIUDAD_DEPARTAMENTO":"Marinilla - Antioquia","CIUDAD":"Marinilla","DEPARTAMENTO":"Antioquia","LATITUD":6.18520515,"LONGITUD":-75.304879329},{"CIUDAD_DEPARTAMENTO":"Montebello - Antioquia","CIUDAD":"Montebello","DEPARTAMENTO":"Antioquia","LATITUD":5.916853903,"LONGITUD":-75.519726926},{"CIUDAD_DEPARTAMENTO":"Murindo - Antioquia","CIUDAD":"Murindo","DEPARTAMENTO":"Antioquia","LATITUD":6.828773855,"LONGITUD":-76.708613491},{"CIUDAD_DEPARTAMENTO":"Mutata - Antioquia","CIUDAD":"Mutata","DEPARTAMENTO":"Antioquia","LATITUD":7.329557848,"LONGITUD":-76.463065695},{"CIUDAD_DEPARTAMENTO":"Nariño - Antioquia","CIUDAD":"Nariño","DEPARTAMENTO":"Antioquia","LATITUD":5.581275312,"LONGITUD":-75.194570185},{"CIUDAD_DEPARTAMENTO":"Necocli - Antioquia","CIUDAD":"Necocli","DEPARTAMENTO":"Antioquia","LATITUD":8.493728551,"LONGITUD":-76.676995884},{"CIUDAD_DEPARTAMENTO":"Nechi - Antioquia","CIUDAD":"Nechi","DEPARTAMENTO":"Antioquia","LATITUD":7.983477394,"LONGITUD":-74.65844186},{"CIUDAD_DEPARTAMENTO":"Olaya - Antioquia","CIUDAD":"Olaya","DEPARTAMENTO":"Antioquia","LATITUD":6.611418083,"LONGITUD":-75.775670969},{"CIUDAD_DEPARTAMENTO":"Peñol - Antioquia","CIUDAD":"Peñol","DEPARTAMENTO":"Antioquia","LATITUD":6.232396368,"LONGITUD":-75.223509055},{"CIUDAD_DEPARTAMENTO":"Peque - Antioquia","CIUDAD":"Peque","DEPARTAMENTO":"Antioquia","LATITUD":7.044180058,"LONGITUD":-75.889688434},{"CIUDAD_DEPARTAMENTO":"Pueblorrico - Antioquia","CIUDAD":"Pueblorrico","DEPARTAMENTO":"Antioquia","LATITUD":5.80970186,"LONGITUD":-75.860766666},{"CIUDAD_DEPARTAMENTO":"Puerto Berrio - Antioquia","CIUDAD":"Puerto Berrio","DEPARTAMENTO":"Antioquia","LATITUD":6.481922267,"LONGITUD":-74.528742101},{"CIUDAD_DEPARTAMENTO":"Puerto Nare - Antioquia","CIUDAD":"Puerto Nare","DEPARTAMENTO":"Antioquia","LATITUD":6.126539139,"LONGITUD":-74.703177217},{"CIUDAD_DEPARTAMENTO":"Puerto Triunfo - Antioquia","CIUDAD":"Puerto Triunfo","DEPARTAMENTO":"Antioquia","LATITUD":5.954830151,"LONGITUD":-74.686191798},{"CIUDAD_DEPARTAMENTO":"Remedios - Antioquia","CIUDAD":"Remedios","DEPARTAMENTO":"Antioquia","LATITUD":6.997267375,"LONGITUD":-74.558656518},{"CIUDAD_DEPARTAMENTO":"Retiro - Antioquia","CIUDAD":"Retiro","DEPARTAMENTO":"Antioquia","LATITUD":6.053444254,"LONGITUD":-75.515738045},{"CIUDAD_DEPARTAMENTO":"Rionegro - Antioquia","CIUDAD":"Rionegro","DEPARTAMENTO":"Antioquia","LATITUD":6.150785807,"LONGITUD":-75.410760524},{"CIUDAD_DEPARTAMENTO":"Sabanalarga - Antioquia","CIUDAD":"Sabanalarga","DEPARTAMENTO":"Antioquia","LATITUD":6.901000506,"LONGITUD":-75.792227535},{"CIUDAD_DEPARTAMENTO":"Sabaneta - Antioquia","CIUDAD":"Sabaneta","DEPARTAMENTO":"Antioquia","LATITUD":6.138305183,"LONGITUD":-75.608805993},{"CIUDAD_DEPARTAMENTO":"Salgar - Antioquia","CIUDAD":"Salgar","DEPARTAMENTO":"Antioquia","LATITUD":5.970502334,"LONGITUD":-75.981372511},{"CIUDAD_DEPARTAMENTO":"San Andres De Cuerquia - Antioquia","CIUDAD":"San Andres De Cuerquia","DEPARTAMENTO":"Antioquia","LATITUD":6.918427233,"LONGITUD":-75.6657758},{"CIUDAD_DEPARTAMENTO":"San Carlos - Antioquia","CIUDAD":"San Carlos","DEPARTAMENTO":"Antioquia","LATITUD":6.193789659,"LONGITUD":-74.90732769},{"CIUDAD_DEPARTAMENTO":"San Francisco - Antioquia","CIUDAD":"San Francisco","DEPARTAMENTO":"Antioquia","LATITUD":5.840093731,"LONGITUD":-74.98176334},{"CIUDAD_DEPARTAMENTO":"San Jeronimo - Antioquia","CIUDAD":"San Jeronimo","DEPARTAMENTO":"Antioquia","LATITUD":6.438300409,"LONGITUD":-75.703107272},{"CIUDAD_DEPARTAMENTO":"San Jose De La Montaña - Antioquia","CIUDAD":"San Jose De La Montaña","DEPARTAMENTO":"Antioquia","LATITUD":6.823258913,"LONGITUD":-75.677708262},{"CIUDAD_DEPARTAMENTO":"San Juan De Uraba - Antioquia","CIUDAD":"San Juan De Uraba","DEPARTAMENTO":"Antioquia","LATITUD":8.707141583,"LONGITUD":-76.532482343},{"CIUDAD_DEPARTAMENTO":"San Luis - Antioquia","CIUDAD":"San Luis","DEPARTAMENTO":"Antioquia","LATITUD":6.024205956,"LONGITUD":-75.007667403},{"CIUDAD_DEPARTAMENTO":"San Pedro De Los Milagros - Antioquia","CIUDAD":"San Pedro De Los Milagros","DEPARTAMENTO":"Antioquia","LATITUD":6.458666308,"LONGITUD":-75.562483898},{"CIUDAD_DEPARTAMENTO":"San Pedro De Uraba - Antioquia","CIUDAD":"San Pedro De Uraba","DEPARTAMENTO":"Antioquia","LATITUD":8.37915695,"LONGITUD":-76.316642334},{"CIUDAD_DEPARTAMENTO":"San Rafael - Antioquia","CIUDAD":"San Rafael","DEPARTAMENTO":"Antioquia","LATITUD":6.31074453,"LONGITUD":-74.998586516},{"CIUDAD_DEPARTAMENTO":"San Roque - Antioquia","CIUDAD":"San Roque","DEPARTAMENTO":"Antioquia","LATITUD":6.466165211,"LONGITUD":-74.945073196},{"CIUDAD_DEPARTAMENTO":"San Vicente Ferrer - Antioquia","CIUDAD":"San Vicente Ferrer","DEPARTAMENTO":"Antioquia","LATITUD":6.310387522,"LONGITUD":-75.327401628},{"CIUDAD_DEPARTAMENTO":"Santa Barbara - Antioquia","CIUDAD":"Santa Barbara","DEPARTAMENTO":"Antioquia","LATITUD":5.878984956,"LONGITUD":-75.583303711},{"CIUDAD_DEPARTAMENTO":"Santa Rosa De Osos - Antioquia","CIUDAD":"Santa Rosa De Osos","DEPARTAMENTO":"Antioquia","LATITUD":6.675827825,"LONGITUD":-75.438143332},{"CIUDAD_DEPARTAMENTO":"Santo Domingo - Antioquia","CIUDAD":"Santo Domingo","DEPARTAMENTO":"Antioquia","LATITUD":6.481044132,"LONGITUD":-75.142600968},{"CIUDAD_DEPARTAMENTO":"El Santuario - Antioquia","CIUDAD":"El Santuario","DEPARTAMENTO":"Antioquia","LATITUD":6.124209495,"LONGITUD":-75.252122776},{"CIUDAD_DEPARTAMENTO":"Segovia - Antioquia","CIUDAD":"Segovia","DEPARTAMENTO":"Antioquia","LATITUD":7.26692339,"LONGITUD":-74.621639263},{"CIUDAD_DEPARTAMENTO":"Sonson - Antioquia","CIUDAD":"Sonson","DEPARTAMENTO":"Antioquia","LATITUD":5.826388779,"LONGITUD":-74.836376225},{"CIUDAD_DEPARTAMENTO":"Sopetran - Antioquia","CIUDAD":"Sopetran","DEPARTAMENTO":"Antioquia","LATITUD":6.520164552,"LONGITUD":-75.745809033},{"CIUDAD_DEPARTAMENTO":"Tamesis - Antioquia","CIUDAD":"Tamesis","DEPARTAMENTO":"Antioquia","LATITUD":5.673758571,"LONGITUD":-75.709799743},{"CIUDAD_DEPARTAMENTO":"Taraza - Antioquia","CIUDAD":"Taraza","DEPARTAMENTO":"Antioquia","LATITUD":7.488875998,"LONGITUD":-75.401894377},{"CIUDAD_DEPARTAMENTO":"Tarso - Antioquia","CIUDAD":"Tarso","DEPARTAMENTO":"Antioquia","LATITUD":5.871064557,"LONGITUD":-75.828711443},{"CIUDAD_DEPARTAMENTO":"Titiribi - Antioquia","CIUDAD":"Titiribi","DEPARTAMENTO":"Antioquia","LATITUD":6.058349971,"LONGITUD":-75.799660047},{"CIUDAD_DEPARTAMENTO":"Toledo - Antioquia","CIUDAD":"Toledo","DEPARTAMENTO":"Antioquia","LATITUD":7.016397069,"LONGITUD":-75.71363382},{"CIUDAD_DEPARTAMENTO":"Turbo - Antioquia","CIUDAD":"Turbo","DEPARTAMENTO":"Antioquia","LATITUD":8.173851745,"LONGITUD":-76.574037701},{"CIUDAD_DEPARTAMENTO":"Uramita - Antioquia","CIUDAD":"Uramita","DEPARTAMENTO":"Antioquia","LATITUD":6.913916924,"LONGITUD":-76.133185136},{"CIUDAD_DEPARTAMENTO":"Urrao - Antioquia","CIUDAD":"Urrao","DEPARTAMENTO":"Antioquia","LATITUD":6.33534134,"LONGITUD":-76.259064819},{"CIUDAD_DEPARTAMENTO":"Valdivia - Antioquia","CIUDAD":"Valdivia","DEPARTAMENTO":"Antioquia","LATITUD":7.265404213,"LONGITUD":-75.400945015},{"CIUDAD_DEPARTAMENTO":"Valparaiso - Antioquia","CIUDAD":"Valparaiso","DEPARTAMENTO":"Antioquia","LATITUD":5.651937802,"LONGITUD":-75.630834123},{"CIUDAD_DEPARTAMENTO":"Vegachi - Antioquia","CIUDAD":"Vegachi","DEPARTAMENTO":"Antioquia","LATITUD":6.836535122,"LONGITUD":-74.754030203},{"CIUDAD_DEPARTAMENTO":"Venecia - Antioquia","CIUDAD":"Venecia","DEPARTAMENTO":"Antioquia","LATITUD":5.956576355,"LONGITUD":-75.777224226},{"CIUDAD_DEPARTAMENTO":"Vigia Del Fuerte - Antioquia","CIUDAD":"Vigia Del Fuerte","DEPARTAMENTO":"Antioquia","LATITUD":6.453351334,"LONGITUD":-76.695048017},{"CIUDAD_DEPARTAMENTO":"Yali - Antioquia","CIUDAD":"Yali","DEPARTAMENTO":"Antioquia","LATITUD":6.716870679,"LONGITUD":-74.75565002},{"CIUDAD_DEPARTAMENTO":"Yarumal - Antioquia","CIUDAD":"Yarumal","DEPARTAMENTO":"Antioquia","LATITUD":6.9881309,"LONGITUD":-75.454399574},{"CIUDAD_DEPARTAMENTO":"Yolombo - Antioquia","CIUDAD":"Yolombo","DEPARTAMENTO":"Antioquia","LATITUD":6.64442786,"LONGITUD":-75.029902658},{"CIUDAD_DEPARTAMENTO":"Yondo - Antioquia","CIUDAD":"Yondo","DEPARTAMENTO":"Antioquia","LATITUD":6.925159318,"LONGITUD":-74.158240414},{"CIUDAD_DEPARTAMENTO":"Zaragoza - Antioquia","CIUDAD":"Zaragoza","DEPARTAMENTO":"Antioquia","LATITUD":7.474004006,"LONGITUD":-74.858483258},{"CIUDAD_DEPARTAMENTO":"Barranquilla - Atlantico","CIUDAD":"Barranquilla","DEPARTAMENTO":"Atlantico","LATITUD":10.98152051,"LONGITUD":-74.827715439},{"CIUDAD_DEPARTAMENTO":"Baranoa - Atlantico","CIUDAD":"Baranoa","DEPARTAMENTO":"Atlantico","LATITUD":10.793293019,"LONGITUD":-74.922194906},{"CIUDAD_DEPARTAMENTO":"Campo De La Cruz - Atlantico","CIUDAD":"Campo De La Cruz","DEPARTAMENTO":"Atlantico","LATITUD":10.38405079,"LONGITUD":-74.884660393},{"CIUDAD_DEPARTAMENTO":"Candelaria - Atlantico","CIUDAD":"Candelaria","DEPARTAMENTO":"Atlantico","LATITUD":10.489020471,"LONGITUD":-74.877566268},{"CIUDAD_DEPARTAMENTO":"Galapa - Atlantico","CIUDAD":"Galapa","DEPARTAMENTO":"Atlantico","LATITUD":10.897719907,"LONGITUD":-74.887087876},{"CIUDAD_DEPARTAMENTO":"Juan De Acosta - Atlantico","CIUDAD":"Juan De Acosta","DEPARTAMENTO":"Atlantico","LATITUD":10.823065032,"LONGITUD":-75.078419039},{"CIUDAD_DEPARTAMENTO":"Luruaco - Atlantico","CIUDAD":"Luruaco","DEPARTAMENTO":"Atlantico","LATITUD":10.635031161,"LONGITUD":-75.15402741},{"CIUDAD_DEPARTAMENTO":"Malambo - Atlantico","CIUDAD":"Malambo","DEPARTAMENTO":"Atlantico","LATITUD":10.848288642,"LONGITUD":-74.806175549},{"CIUDAD_DEPARTAMENTO":"Manati - Atlantico","CIUDAD":"Manati","DEPARTAMENTO":"Atlantico","LATITUD":10.454145546,"LONGITUD":-74.984773669},{"CIUDAD_DEPARTAMENTO":"Palmar De Varela - Atlantico","CIUDAD":"Palmar De Varela","DEPARTAMENTO":"Atlantico","LATITUD":10.694812078,"LONGITUD":-74.770150903},{"CIUDAD_DEPARTAMENTO":"Piojo - Atlantico","CIUDAD":"Piojo","DEPARTAMENTO":"Atlantico","LATITUD":10.740789594,"LONGITUD":-75.143660335},{"CIUDAD_DEPARTAMENTO":"Polonuevo - Atlantico","CIUDAD":"Polonuevo","DEPARTAMENTO":"Atlantico","LATITUD":10.767401414,"LONGITUD":-74.854148436},{"CIUDAD_DEPARTAMENTO":"Ponedera - Atlantico","CIUDAD":"Ponedera","DEPARTAMENTO":"Atlantico","LATITUD":10.594651021,"LONGITUD":-74.798473158},{"CIUDAD_DEPARTAMENTO":"Puerto Colombia - Atlantico","CIUDAD":"Puerto Colombia","DEPARTAMENTO":"Atlantico","LATITUD":11.004422597,"LONGITUD":-74.907405804},{"CIUDAD_DEPARTAMENTO":"Repelon - Atlantico","CIUDAD":"Repelon","DEPARTAMENTO":"Atlantico","LATITUD":10.507570513,"LONGITUD":-75.121880527},{"CIUDAD_DEPARTAMENTO":"Sabanagrande - Atlantico","CIUDAD":"Sabanagrande","DEPARTAMENTO":"Atlantico","LATITUD":10.798940151,"LONGITUD":-74.768796603},{"CIUDAD_DEPARTAMENTO":"Sabanalarga - Atlantico","CIUDAD":"Sabanalarga","DEPARTAMENTO":"Atlantico","LATITUD":10.622507773,"LONGITUD":-74.955105416},{"CIUDAD_DEPARTAMENTO":"Santa Lucia - Atlantico","CIUDAD":"Santa Lucia","DEPARTAMENTO":"Atlantico","LATITUD":10.35364192,"LONGITUD":-74.965411787},{"CIUDAD_DEPARTAMENTO":"Santo Tomas - Atlantico","CIUDAD":"Santo Tomas","DEPARTAMENTO":"Atlantico","LATITUD":10.755626561,"LONGITUD":-74.78726468},{"CIUDAD_DEPARTAMENTO":"Soledad - Atlantico","CIUDAD":"Soledad","DEPARTAMENTO":"Atlantico","LATITUD":10.906906595,"LONGITUD":-74.778424903},{"CIUDAD_DEPARTAMENTO":"Suan - Atlantico","CIUDAD":"Suan","DEPARTAMENTO":"Atlantico","LATITUD":10.310850347,"LONGITUD":-74.907133084},{"CIUDAD_DEPARTAMENTO":"Tubara - Atlantico","CIUDAD":"Tubara","DEPARTAMENTO":"Atlantico","LATITUD":10.907219384,"LONGITUD":-74.98423293},{"CIUDAD_DEPARTAMENTO":"Usiacuri - Atlantico","CIUDAD":"Usiacuri","DEPARTAMENTO":"Atlantico","LATITUD":10.740522657,"LONGITUD":-74.982674126},{"CIUDAD_DEPARTAMENTO":"Bogota, D.C. - Bogota, D.C.","CIUDAD":"Bogota, D.C.","DEPARTAMENTO":"Bogota, D.C.","LATITUD":4.316107698,"LONGITUD":-74.181072702},{"CIUDAD_DEPARTAMENTO":"Cartagena De Indias - Bolivar","CIUDAD":"Cartagena De Indias","DEPARTAMENTO":"Bolivar","LATITUD":10.463433617,"LONGITUD":-75.45889915},{"CIUDAD_DEPARTAMENTO":"Achi - Bolivar","CIUDAD":"Achi","DEPARTAMENTO":"Bolivar","LATITUD":8.622943262,"LONGITUD":-74.478059448},{"CIUDAD_DEPARTAMENTO":"Altos Del Rosario - Bolivar","CIUDAD":"Altos Del Rosario","DEPARTAMENTO":"Bolivar","LATITUD":8.757468863,"LONGITUD":-74.195158106},{"CIUDAD_DEPARTAMENTO":"Arenal - Bolivar","CIUDAD":"Arenal","DEPARTAMENTO":"Bolivar","LATITUD":8.362996158,"LONGITUD":-74.103019049},{"CIUDAD_DEPARTAMENTO":"Arjona - Bolivar","CIUDAD":"Arjona","DEPARTAMENTO":"Bolivar","LATITUD":10.164221225,"LONGITUD":-75.371217884},{"CIUDAD_DEPARTAMENTO":"Arroyohondo - Bolivar","CIUDAD":"Arroyohondo","DEPARTAMENTO":"Bolivar","LATITUD":10.241718047,"LONGITUD":-75.026904215},{"CIUDAD_DEPARTAMENTO":"Barranco De Loba - Bolivar","CIUDAD":"Barranco De Loba","DEPARTAMENTO":"Bolivar","LATITUD":8.837077654,"LONGITUD":-74.279665305},{"CIUDAD_DEPARTAMENTO":"Calamar - Bolivar","CIUDAD":"Calamar","DEPARTAMENTO":"Bolivar","LATITUD":10.155170977,"LONGITUD":-74.999959492},{"CIUDAD_DEPARTAMENTO":"Cantagallo - Bolivar","CIUDAD":"Cantagallo","DEPARTAMENTO":"Bolivar","LATITUD":7.239229146,"LONGITUD":-74.100140429},{"CIUDAD_DEPARTAMENTO":"Cicuco - Bolivar","CIUDAD":"Cicuco","DEPARTAMENTO":"Bolivar","LATITUD":9.235268598,"LONGITUD":-74.688409615},{"CIUDAD_DEPARTAMENTO":"Cordoba - Bolivar","CIUDAD":"Cordoba","DEPARTAMENTO":"Bolivar","LATITUD":9.540047515,"LONGITUD":-74.894456346},{"CIUDAD_DEPARTAMENTO":"Clemencia - Bolivar","CIUDAD":"Clemencia","DEPARTAMENTO":"Bolivar","LATITUD":10.556636955,"LONGITUD":-75.314466528},{"CIUDAD_DEPARTAMENTO":"El Carmen De Bolivar - Bolivar","CIUDAD":"El Carmen De Bolivar","DEPARTAMENTO":"Bolivar","LATITUD":9.699819876,"LONGITUD":-75.157935726},{"CIUDAD_DEPARTAMENTO":"El Guamo - Bolivar","CIUDAD":"El Guamo","DEPARTAMENTO":"Bolivar","LATITUD":10.034836723,"LONGITUD":-74.928110717},{"CIUDAD_DEPARTAMENTO":"El Peñon - Bolivar","CIUDAD":"El Peñon","DEPARTAMENTO":"Bolivar","LATITUD":8.864818786,"LONGITUD":-73.912301472},{"CIUDAD_DEPARTAMENTO":"Hatillo De Loba - Bolivar","CIUDAD":"Hatillo De Loba","DEPARTAMENTO":"Bolivar","LATITUD":8.981717133,"LONGITUD":-74.090719016},{"CIUDAD_DEPARTAMENTO":"Magangue - Bolivar","CIUDAD":"Magangue","DEPARTAMENTO":"Bolivar","LATITUD":9.053135895,"LONGITUD":-74.705393181},{"CIUDAD_DEPARTAMENTO":"Mahates - Bolivar","CIUDAD":"Mahates","DEPARTAMENTO":"Bolivar","LATITUD":10.178213908,"LONGITUD":-75.17978161},{"CIUDAD_DEPARTAMENTO":"Margarita - Bolivar","CIUDAD":"Margarita","DEPARTAMENTO":"Bolivar","LATITUD":9.054601889,"LONGITUD":-74.225847059},{"CIUDAD_DEPARTAMENTO":"Maria La Baja - Bolivar","CIUDAD":"Maria La Baja","DEPARTAMENTO":"Bolivar","LATITUD":9.976017168,"LONGITUD":-75.343802649},{"CIUDAD_DEPARTAMENTO":"Montecristo - Bolivar","CIUDAD":"Montecristo","DEPARTAMENTO":"Bolivar","LATITUD":8.01710024,"LONGITUD":-74.463429112},{"CIUDAD_DEPARTAMENTO":"Santa Cruz De Mompox - Bolivar","CIUDAD":"Santa Cruz De Mompox","DEPARTAMENTO":"Bolivar","LATITUD":9.142512064,"LONGITUD":-74.545199057},{"CIUDAD_DEPARTAMENTO":"Morales - Bolivar","CIUDAD":"Morales","DEPARTAMENTO":"Bolivar","LATITUD":8.253700061,"LONGITUD":-73.971345899},{"CIUDAD_DEPARTAMENTO":"Norosi - Bolivar","CIUDAD":"Norosi","DEPARTAMENTO":"Bolivar","LATITUD":8.50613476,"LONGITUD":-74.115889115},{"CIUDAD_DEPARTAMENTO":"Pinillos - Bolivar","CIUDAD":"Pinillos","DEPARTAMENTO":"Bolivar","LATITUD":8.886315511,"LONGITUD":-74.408884758},{"CIUDAD_DEPARTAMENTO":"Regidor - Bolivar","CIUDAD":"Regidor","DEPARTAMENTO":"Bolivar","LATITUD":8.672628558,"LONGITUD":-73.914506788},{"CIUDAD_DEPARTAMENTO":"Rio Viejo - Bolivar","CIUDAD":"Rio Viejo","DEPARTAMENTO":"Bolivar","LATITUD":8.559982465,"LONGITUD":-73.902986677},{"CIUDAD_DEPARTAMENTO":"San Cristobal - Bolivar","CIUDAD":"San Cristobal","DEPARTAMENTO":"Bolivar","LATITUD":10.369720871,"LONGITUD":-75.073338352},{"CIUDAD_DEPARTAMENTO":"San Estanislao - Bolivar","CIUDAD":"San Estanislao","DEPARTAMENTO":"Bolivar","LATITUD":10.364681919,"LONGITUD":-75.205234868},{"CIUDAD_DEPARTAMENTO":"San Fernando - Bolivar","CIUDAD":"San Fernando","DEPARTAMENTO":"Bolivar","LATITUD":9.081483143,"LONGITUD":-74.371866466},{"CIUDAD_DEPARTAMENTO":"San Jacinto - Bolivar","CIUDAD":"San Jacinto","DEPARTAMENTO":"Bolivar","LATITUD":9.835362011,"LONGITUD":-75.106092009},{"CIUDAD_DEPARTAMENTO":"San Jacinto Del Cauca - Bolivar","CIUDAD":"San Jacinto Del Cauca","DEPARTAMENTO":"Bolivar","LATITUD":8.212463202,"LONGITUD":-74.75082},{"CIUDAD_DEPARTAMENTO":"San Juan Nepomuceno - Bolivar","CIUDAD":"San Juan Nepomuceno","DEPARTAMENTO":"Bolivar","LATITUD":9.967957823,"LONGITUD":-75.065719587},{"CIUDAD_DEPARTAMENTO":"San Martin De Loba - Bolivar","CIUDAD":"San Martin De Loba","DEPARTAMENTO":"Bolivar","LATITUD":8.816088444,"LONGITUD":-74.005999668},{"CIUDAD_DEPARTAMENTO":"San Pablo - Bolivar","CIUDAD":"San Pablo","DEPARTAMENTO":"Bolivar","LATITUD":7.507922612,"LONGITUD":-74.103569774},{"CIUDAD_DEPARTAMENTO":"Santa Catalina - Bolivar","CIUDAD":"Santa Catalina","DEPARTAMENTO":"Bolivar","LATITUD":10.649812776,"LONGITUD":-75.26548463},{"CIUDAD_DEPARTAMENTO":"Santa Rosa - Bolivar","CIUDAD":"Santa Rosa","DEPARTAMENTO":"Bolivar","LATITUD":10.469207257,"LONGITUD":-75.361160527},{"CIUDAD_DEPARTAMENTO":"Santa Rosa Del Sur - Bolivar","CIUDAD":"Santa Rosa Del Sur","DEPARTAMENTO":"Bolivar","LATITUD":7.772519173,"LONGITUD":-74.262728426},{"CIUDAD_DEPARTAMENTO":"Simiti - Bolivar","CIUDAD":"Simiti","DEPARTAMENTO":"Bolivar","LATITUD":7.851315534,"LONGITUD":-73.983716091},{"CIUDAD_DEPARTAMENTO":"Soplaviento - Bolivar","CIUDAD":"Soplaviento","DEPARTAMENTO":"Bolivar","LATITUD":10.332090314,"LONGITUD":-75.116992257},{"CIUDAD_DEPARTAMENTO":"Talaigua Nuevo - Bolivar","CIUDAD":"Talaigua Nuevo","DEPARTAMENTO":"Bolivar","LATITUD":9.269516705,"LONGITUD":-74.586952326},{"CIUDAD_DEPARTAMENTO":"Tiquisio - Bolivar","CIUDAD":"Tiquisio","DEPARTAMENTO":"Bolivar","LATITUD":8.492345176,"LONGITUD":-74.296761387},{"CIUDAD_DEPARTAMENTO":"Turbaco - Bolivar","CIUDAD":"Turbaco","DEPARTAMENTO":"Bolivar","LATITUD":10.353107564,"LONGITUD":-75.379715411},{"CIUDAD_DEPARTAMENTO":"Turbana - Bolivar","CIUDAD":"Turbana","DEPARTAMENTO":"Bolivar","LATITUD":10.252769289,"LONGITUD":-75.432702985},{"CIUDAD_DEPARTAMENTO":"Villanueva - Bolivar","CIUDAD":"Villanueva","DEPARTAMENTO":"Bolivar","LATITUD":10.444913198,"LONGITUD":-75.267362754},{"CIUDAD_DEPARTAMENTO":"Zambrano - Bolivar","CIUDAD":"Zambrano","DEPARTAMENTO":"Bolivar","LATITUD":9.745147021,"LONGITUD":-74.880670367},{"CIUDAD_DEPARTAMENTO":"Tunja - Boyaca","CIUDAD":"Tunja","DEPARTAMENTO":"Boyaca","LATITUD":5.518472615,"LONGITUD":-73.378018556},{"CIUDAD_DEPARTAMENTO":"Almeida - Boyaca","CIUDAD":"Almeida","DEPARTAMENTO":"Boyaca","LATITUD":4.954825081,"LONGITUD":-73.388134245},{"CIUDAD_DEPARTAMENTO":"Aquitania - Boyaca","CIUDAD":"Aquitania","DEPARTAMENTO":"Boyaca","LATITUD":5.437416373,"LONGITUD":-72.871494711},{"CIUDAD_DEPARTAMENTO":"Arcabuco - Boyaca","CIUDAD":"Arcabuco","DEPARTAMENTO":"Boyaca","LATITUD":5.73526424,"LONGITUD":-73.427931091},{"CIUDAD_DEPARTAMENTO":"Belen - Boyaca","CIUDAD":"Belen","DEPARTAMENTO":"Boyaca","LATITUD":6.005059265,"LONGITUD":-72.893698873},{"CIUDAD_DEPARTAMENTO":"Berbeo - Boyaca","CIUDAD":"Berbeo","DEPARTAMENTO":"Boyaca","LATITUD":5.230936356,"LONGITUD":-73.127319437},{"CIUDAD_DEPARTAMENTO":"Beteitiva - Boyaca","CIUDAD":"Beteitiva","DEPARTAMENTO":"Boyaca","LATITUD":5.920858933,"LONGITUD":-72.848578763},{"CIUDAD_DEPARTAMENTO":"Boavita - Boyaca","CIUDAD":"Boavita","DEPARTAMENTO":"Boyaca","LATITUD":6.337515626,"LONGITUD":-72.62021239},{"CIUDAD_DEPARTAMENTO":"Boyaca - Boyaca","CIUDAD":"Boyaca","DEPARTAMENTO":"Boyaca","LATITUD":5.439856216,"LONGITUD":-73.381369938},{"CIUDAD_DEPARTAMENTO":"Briceño - Boyaca","CIUDAD":"Briceño","DEPARTAMENTO":"Boyaca","LATITUD":5.673229265,"LONGITUD":-73.926607047},{"CIUDAD_DEPARTAMENTO":"Buenavista - Boyaca","CIUDAD":"Buenavista","DEPARTAMENTO":"Boyaca","LATITUD":5.489399419,"LONGITUD":-73.950662546},{"CIUDAD_DEPARTAMENTO":"Busbanza - Boyaca","CIUDAD":"Busbanza","DEPARTAMENTO":"Boyaca","LATITUD":5.843483731,"LONGITUD":-72.87574623},{"CIUDAD_DEPARTAMENTO":"Caldas - Boyaca","CIUDAD":"Caldas","DEPARTAMENTO":"Boyaca","LATITUD":5.575990669,"LONGITUD":-73.880575077},{"CIUDAD_DEPARTAMENTO":"Campohermoso - Boyaca","CIUDAD":"Campohermoso","DEPARTAMENTO":"Boyaca","LATITUD":5.006862536,"LONGITUD":-73.144670302},{"CIUDAD_DEPARTAMENTO":"Cerinza - Boyaca","CIUDAD":"Cerinza","DEPARTAMENTO":"Boyaca","LATITUD":5.962013698,"LONGITUD":-72.964472884},{"CIUDAD_DEPARTAMENTO":"Chinavita - Boyaca","CIUDAD":"Chinavita","DEPARTAMENTO":"Boyaca","LATITUD":5.202971639,"LONGITUD":-73.340480736},{"CIUDAD_DEPARTAMENTO":"Chiquinquira - Boyaca","CIUDAD":"Chiquinquira","DEPARTAMENTO":"Boyaca","LATITUD":5.622488024,"LONGITUD":-73.804245312},{"CIUDAD_DEPARTAMENTO":"Chiscas - Boyaca","CIUDAD":"Chiscas","DEPARTAMENTO":"Boyaca","LATITUD":6.68911806,"LONGITUD":-72.417956748},{"CIUDAD_DEPARTAMENTO":"Chita - Boyaca","CIUDAD":"Chita","DEPARTAMENTO":"Boyaca","LATITUD":6.091468485,"LONGITUD":-72.439031738},{"CIUDAD_DEPARTAMENTO":"Chitaraque - Boyaca","CIUDAD":"Chitaraque","DEPARTAMENTO":"Boyaca","LATITUD":5.984394625,"LONGITUD":-73.425823751},{"CIUDAD_DEPARTAMENTO":"Chivata - Boyaca","CIUDAD":"Chivata","DEPARTAMENTO":"Boyaca","LATITUD":5.556830465,"LONGITUD":-73.260617153},{"CIUDAD_DEPARTAMENTO":"Cienega - Boyaca","CIUDAD":"Cienega","DEPARTAMENTO":"Boyaca","LATITUD":5.393059633,"LONGITUD":-73.282057716},{"CIUDAD_DEPARTAMENTO":"Combita - Boyaca","CIUDAD":"Combita","DEPARTAMENTO":"Boyaca","LATITUD":5.667822366,"LONGITUD":-73.321370491},{"CIUDAD_DEPARTAMENTO":"Coper - Boyaca","CIUDAD":"Coper","DEPARTAMENTO":"Boyaca","LATITUD":5.452461072,"LONGITUD":-74.059965781},{"CIUDAD_DEPARTAMENTO":"Corrales - Boyaca","CIUDAD":"Corrales","DEPARTAMENTO":"Boyaca","LATITUD":5.82454582,"LONGITUD":-72.845448448},{"CIUDAD_DEPARTAMENTO":"Covarachia - Boyaca","CIUDAD":"Covarachia","DEPARTAMENTO":"Boyaca","LATITUD":6.519521476,"LONGITUD":-72.740204209},{"CIUDAD_DEPARTAMENTO":"Cubara - Boyaca","CIUDAD":"Cubara","DEPARTAMENTO":"Boyaca","LATITUD":6.886954878,"LONGITUD":-72.181562849},{"CIUDAD_DEPARTAMENTO":"Cucaita - Boyaca","CIUDAD":"Cucaita","DEPARTAMENTO":"Boyaca","LATITUD":5.527104109,"LONGITUD":-73.445986459},{"CIUDAD_DEPARTAMENTO":"Cuitiva - Boyaca","CIUDAD":"Cuitiva","DEPARTAMENTO":"Boyaca","LATITUD":5.58775449,"LONGITUD":-72.939536863},{"CIUDAD_DEPARTAMENTO":"Chiquiza - Boyaca","CIUDAD":"Chiquiza","DEPARTAMENTO":"Boyaca","LATITUD":5.643075648,"LONGITUD":-73.445623907},{"CIUDAD_DEPARTAMENTO":"Chivor - Boyaca","CIUDAD":"Chivor","DEPARTAMENTO":"Boyaca","LATITUD":4.871181606,"LONGITUD":-73.361423792},{"CIUDAD_DEPARTAMENTO":"Duitama - Boyaca","CIUDAD":"Duitama","DEPARTAMENTO":"Boyaca","LATITUD":5.890602515,"LONGITUD":-73.067094843},{"CIUDAD_DEPARTAMENTO":"El Cocuy - Boyaca","CIUDAD":"El Cocuy","DEPARTAMENTO":"Boyaca","LATITUD":6.353363177,"LONGITUD":-72.419237519},{"CIUDAD_DEPARTAMENTO":"El Espino - Boyaca","CIUDAD":"El Espino","DEPARTAMENTO":"Boyaca","LATITUD":6.508240556,"LONGITUD":-72.480496247},{"CIUDAD_DEPARTAMENTO":"Firavitoba - Boyaca","CIUDAD":"Firavitoba","DEPARTAMENTO":"Boyaca","LATITUD":5.67367659,"LONGITUD":-73.019833516},{"CIUDAD_DEPARTAMENTO":"Floresta - Boyaca","CIUDAD":"Floresta","DEPARTAMENTO":"Boyaca","LATITUD":5.85899211,"LONGITUD":-72.924998265},{"CIUDAD_DEPARTAMENTO":"Gachantiva - Boyaca","CIUDAD":"Gachantiva","DEPARTAMENTO":"Boyaca","LATITUD":5.744105975,"LONGITUD":-73.542655196},{"CIUDAD_DEPARTAMENTO":"Gameza - Boyaca","CIUDAD":"Gameza","DEPARTAMENTO":"Boyaca","LATITUD":5.799050256,"LONGITUD":-72.729647651},{"CIUDAD_DEPARTAMENTO":"Garagoa - Boyaca","CIUDAD":"Garagoa","DEPARTAMENTO":"Boyaca","LATITUD":5.089466651,"LONGITUD":-73.314302722},{"CIUDAD_DEPARTAMENTO":"Guacamayas - Boyaca","CIUDAD":"Guacamayas","DEPARTAMENTO":"Boyaca","LATITUD":6.445438546,"LONGITUD":-72.516353323},{"CIUDAD_DEPARTAMENTO":"Guateque - Boyaca","CIUDAD":"Guateque","DEPARTAMENTO":"Boyaca","LATITUD":5.01450831,"LONGITUD":-73.488123516},{"CIUDAD_DEPARTAMENTO":"Guayata - Boyaca","CIUDAD":"Guayata","DEPARTAMENTO":"Boyaca","LATITUD":4.931424341,"LONGITUD":-73.496633724},{"CIUDAD_DEPARTAMENTO":"Güican De La Sierra - Boyaca","CIUDAD":"Güican De La Sierra","DEPARTAMENTO":"Boyaca","LATITUD":6.566991765,"LONGITUD":-72.255993335},{"CIUDAD_DEPARTAMENTO":"Iza - Boyaca","CIUDAD":"Iza","DEPARTAMENTO":"Boyaca","LATITUD":5.617366016,"LONGITUD":-72.969865044},{"CIUDAD_DEPARTAMENTO":"Jenesano - Boyaca","CIUDAD":"Jenesano","DEPARTAMENTO":"Boyaca","LATITUD":5.38916272,"LONGITUD":-73.400870207},{"CIUDAD_DEPARTAMENTO":"Jerico - Boyaca","CIUDAD":"Jerico","DEPARTAMENTO":"Boyaca","LATITUD":6.155633662,"LONGITUD":-72.585230926},{"CIUDAD_DEPARTAMENTO":"Labranzagrande - Boyaca","CIUDAD":"Labranzagrande","DEPARTAMENTO":"Boyaca","LATITUD":5.541378132,"LONGITUD":-72.590384601},{"CIUDAD_DEPARTAMENTO":"La Capilla - Boyaca","CIUDAD":"La Capilla","DEPARTAMENTO":"Boyaca","LATITUD":5.113167102,"LONGITUD":-73.459237077},{"CIUDAD_DEPARTAMENTO":"La Victoria - Boyaca","CIUDAD":"La Victoria","DEPARTAMENTO":"Boyaca","LATITUD":5.507008121,"LONGITUD":-74.241627269},{"CIUDAD_DEPARTAMENTO":"La Uvita - Boyaca","CIUDAD":"La Uvita","DEPARTAMENTO":"Boyaca","LATITUD":6.265126191,"LONGITUD":-72.555510848},{"CIUDAD_DEPARTAMENTO":"Villa De Leyva - Boyaca","CIUDAD":"Villa De Leyva","DEPARTAMENTO":"Boyaca","LATITUD":5.665762424,"LONGITUD":-73.514948003},{"CIUDAD_DEPARTAMENTO":"Macanal - Boyaca","CIUDAD":"Macanal","DEPARTAMENTO":"Boyaca","LATITUD":4.980176495,"LONGITUD":-73.294136946},{"CIUDAD_DEPARTAMENTO":"Maripi - Boyaca","CIUDAD":"Maripi","DEPARTAMENTO":"Boyaca","LATITUD":5.569810633,"LONGITUD":-74.020031272},{"CIUDAD_DEPARTAMENTO":"Miraflores - Boyaca","CIUDAD":"Miraflores","DEPARTAMENTO":"Boyaca","LATITUD":5.150953297,"LONGITUD":-73.178967217},{"CIUDAD_DEPARTAMENTO":"Mongua - Boyaca","CIUDAD":"Mongua","DEPARTAMENTO":"Boyaca","LATITUD":5.710937981,"LONGITUD":-72.634028752},{"CIUDAD_DEPARTAMENTO":"Mongui - Boyaca","CIUDAD":"Mongui","DEPARTAMENTO":"Boyaca","LATITUD":5.697352228,"LONGITUD":-72.832986642},{"CIUDAD_DEPARTAMENTO":"Moniquira - Boyaca","CIUDAD":"Moniquira","DEPARTAMENTO":"Boyaca","LATITUD":5.863370485,"LONGITUD":-73.558525378},{"CIUDAD_DEPARTAMENTO":"Motavita - Boyaca","CIUDAD":"Motavita","DEPARTAMENTO":"Boyaca","LATITUD":5.606192449,"LONGITUD":-73.377342665},{"CIUDAD_DEPARTAMENTO":"Muzo - Boyaca","CIUDAD":"Muzo","DEPARTAMENTO":"Boyaca","LATITUD":5.539429272,"LONGITUD":-74.111771391},{"CIUDAD_DEPARTAMENTO":"Nobsa - Boyaca","CIUDAD":"Nobsa","DEPARTAMENTO":"Boyaca","LATITUD":5.778759851,"LONGITUD":-72.932683237},{"CIUDAD_DEPARTAMENTO":"Nuevo Colon - Boyaca","CIUDAD":"Nuevo Colon","DEPARTAMENTO":"Boyaca","LATITUD":5.354701485,"LONGITUD":-73.448734241},{"CIUDAD_DEPARTAMENTO":"Oicata - Boyaca","CIUDAD":"Oicata","DEPARTAMENTO":"Boyaca","LATITUD":5.610787844,"LONGITUD":-73.279919053},{"CIUDAD_DEPARTAMENTO":"Otanche - Boyaca","CIUDAD":"Otanche","DEPARTAMENTO":"Boyaca","LATITUD":5.753787787,"LONGITUD":-74.197194226},{"CIUDAD_DEPARTAMENTO":"Pachavita - Boyaca","CIUDAD":"Pachavita","DEPARTAMENTO":"Boyaca","LATITUD":5.148323877,"LONGITUD":-73.399512192},{"CIUDAD_DEPARTAMENTO":"Paez - Boyaca","CIUDAD":"Paez","DEPARTAMENTO":"Boyaca","LATITUD":5.095211035,"LONGITUD":-73.004358626},{"CIUDAD_DEPARTAMENTO":"Paipa - Boyaca","CIUDAD":"Paipa","DEPARTAMENTO":"Boyaca","LATITUD":5.762027786,"LONGITUD":-73.137774423},{"CIUDAD_DEPARTAMENTO":"Pajarito - Boyaca","CIUDAD":"Pajarito","DEPARTAMENTO":"Boyaca","LATITUD":5.382328949,"LONGITUD":-72.696726742},{"CIUDAD_DEPARTAMENTO":"Panqueba - Boyaca","CIUDAD":"Panqueba","DEPARTAMENTO":"Boyaca","LATITUD":6.443299758,"LONGITUD":-72.461824312},{"CIUDAD_DEPARTAMENTO":"Pauna - Boyaca","CIUDAD":"Pauna","DEPARTAMENTO":"Boyaca","LATITUD":5.688801559,"LONGITUD":-74.005041215},{"CIUDAD_DEPARTAMENTO":"Paya - Boyaca","CIUDAD":"Paya","DEPARTAMENTO":"Boyaca","LATITUD":5.621242742,"LONGITUD":-72.369290598},{"CIUDAD_DEPARTAMENTO":"Paz De Rio - Boyaca","CIUDAD":"Paz De Rio","DEPARTAMENTO":"Boyaca","LATITUD":6.030008561,"LONGITUD":-72.759880177},{"CIUDAD_DEPARTAMENTO":"Pesca - Boyaca","CIUDAD":"Pesca","DEPARTAMENTO":"Boyaca","LATITUD":5.498483324,"LONGITUD":-73.07837993},{"CIUDAD_DEPARTAMENTO":"Pisba - Boyaca","CIUDAD":"Pisba","DEPARTAMENTO":"Boyaca","LATITUD":5.768131812,"LONGITUD":-72.439932321},{"CIUDAD_DEPARTAMENTO":"Puerto Boyaca - Boyaca","CIUDAD":"Puerto Boyaca","DEPARTAMENTO":"Boyaca","LATITUD":5.953466654,"LONGITUD":-74.452858102},{"CIUDAD_DEPARTAMENTO":"Quipama - Boyaca","CIUDAD":"Quipama","DEPARTAMENTO":"Boyaca","LATITUD":5.595729831,"LONGITUD":-74.268570671},{"CIUDAD_DEPARTAMENTO":"Ramiriqui - Boyaca","CIUDAD":"Ramiriqui","DEPARTAMENTO":"Boyaca","LATITUD":5.319934092,"LONGITUD":-73.310778996},{"CIUDAD_DEPARTAMENTO":"Raquira - Boyaca","CIUDAD":"Raquira","DEPARTAMENTO":"Boyaca","LATITUD":5.496268621,"LONGITUD":-73.628944376},{"CIUDAD_DEPARTAMENTO":"Rondon - Boyaca","CIUDAD":"Rondon","DEPARTAMENTO":"Boyaca","LATITUD":5.379947879,"LONGITUD":-73.196509947},{"CIUDAD_DEPARTAMENTO":"Saboya - Boyaca","CIUDAD":"Saboya","DEPARTAMENTO":"Boyaca","LATITUD":5.699926051,"LONGITUD":-73.747994656},{"CIUDAD_DEPARTAMENTO":"Sachica - Boyaca","CIUDAD":"Sachica","DEPARTAMENTO":"Boyaca","LATITUD":5.573464882,"LONGITUD":-73.543102003},{"CIUDAD_DEPARTAMENTO":"Samaca - Boyaca","CIUDAD":"Samaca","DEPARTAMENTO":"Boyaca","LATITUD":5.47053997,"LONGITUD":-73.521175604},{"CIUDAD_DEPARTAMENTO":"San Eduardo - Boyaca","CIUDAD":"San Eduardo","DEPARTAMENTO":"Boyaca","LATITUD":5.234614686,"LONGITUD":-73.049140669},{"CIUDAD_DEPARTAMENTO":"San Jose De Pare - Boyaca","CIUDAD":"San Jose De Pare","DEPARTAMENTO":"Boyaca","LATITUD":5.994154088,"LONGITUD":-73.543865224},{"CIUDAD_DEPARTAMENTO":"San Luis De Gaceno - Boyaca","CIUDAD":"San Luis De Gaceno","DEPARTAMENTO":"Boyaca","LATITUD":4.798203543,"LONGITUD":-73.133970184},{"CIUDAD_DEPARTAMENTO":"San Mateo - Boyaca","CIUDAD":"San Mateo","DEPARTAMENTO":"Boyaca","LATITUD":6.395388812,"LONGITUD":-72.551848623},{"CIUDAD_DEPARTAMENTO":"San Miguel De Sema - Boyaca","CIUDAD":"San Miguel De Sema","DEPARTAMENTO":"Boyaca","LATITUD":5.532326922,"LONGITUD":-73.747158978},{"CIUDAD_DEPARTAMENTO":"San Pablo De Borbur - Boyaca","CIUDAD":"San Pablo De Borbur","DEPARTAMENTO":"Boyaca","LATITUD":5.677345066,"LONGITUD":-74.114037486},{"CIUDAD_DEPARTAMENTO":"Santana - Boyaca","CIUDAD":"Santana","DEPARTAMENTO":"Boyaca","LATITUD":6.057614971,"LONGITUD":-73.489748282},{"CIUDAD_DEPARTAMENTO":"Santa Maria - Boyaca","CIUDAD":"Santa Maria","DEPARTAMENTO":"Boyaca","LATITUD":4.823002556,"LONGITUD":-73.253775062},{"CIUDAD_DEPARTAMENTO":"Santa Rosa De Viterbo - Boyaca","CIUDAD":"Santa Rosa De Viterbo","DEPARTAMENTO":"Boyaca","LATITUD":5.892950301,"LONGITUD":-72.991727804},{"CIUDAD_DEPARTAMENTO":"Santa Sofia - Boyaca","CIUDAD":"Santa Sofia","DEPARTAMENTO":"Boyaca","LATITUD":5.731602716,"LONGITUD":-73.603662869},{"CIUDAD_DEPARTAMENTO":"Sativanorte - Boyaca","CIUDAD":"Sativanorte","DEPARTAMENTO":"Boyaca","LATITUD":6.13211793,"LONGITUD":-72.730324154},{"CIUDAD_DEPARTAMENTO":"Sativasur - Boyaca","CIUDAD":"Sativasur","DEPARTAMENTO":"Boyaca","LATITUD":6.083405978,"LONGITUD":-72.724108145},{"CIUDAD_DEPARTAMENTO":"Siachoque - Boyaca","CIUDAD":"Siachoque","DEPARTAMENTO":"Boyaca","LATITUD":5.498747701,"LONGITUD":-73.216817778},{"CIUDAD_DEPARTAMENTO":"Soata - Boyaca","CIUDAD":"Soata","DEPARTAMENTO":"Boyaca","LATITUD":6.323088045,"LONGITUD":-72.696040893},{"CIUDAD_DEPARTAMENTO":"Socota - Boyaca","CIUDAD":"Socota","DEPARTAMENTO":"Boyaca","LATITUD":5.906513772,"LONGITUD":-72.536463605},{"CIUDAD_DEPARTAMENTO":"Socha - Boyaca","CIUDAD":"Socha","DEPARTAMENTO":"Boyaca","LATITUD":5.960498836,"LONGITUD":-72.682397841},{"CIUDAD_DEPARTAMENTO":"Sogamoso - Boyaca","CIUDAD":"Sogamoso","DEPARTAMENTO":"Boyaca","LATITUD":5.646672053,"LONGITUD":-72.870956503},{"CIUDAD_DEPARTAMENTO":"Somondoco - Boyaca","CIUDAD":"Somondoco","DEPARTAMENTO":"Boyaca","LATITUD":4.970974064,"LONGITUD":-73.428787852},{"CIUDAD_DEPARTAMENTO":"Sora - Boyaca","CIUDAD":"Sora","DEPARTAMENTO":"Boyaca","LATITUD":5.580573191,"LONGITUD":-73.443718375},{"CIUDAD_DEPARTAMENTO":"Sotaquira - Boyaca","CIUDAD":"Sotaquira","DEPARTAMENTO":"Boyaca","LATITUD":5.763010553,"LONGITUD":-73.24352232},{"CIUDAD_DEPARTAMENTO":"Soraca - Boyaca","CIUDAD":"Soraca","DEPARTAMENTO":"Boyaca","LATITUD":5.494890461,"LONGITUD":-73.318999965},{"CIUDAD_DEPARTAMENTO":"Susacon - Boyaca","CIUDAD":"Susacon","DEPARTAMENTO":"Boyaca","LATITUD":6.215200578,"LONGITUD":-72.715756341},{"CIUDAD_DEPARTAMENTO":"Sutamarchan - Boyaca","CIUDAD":"Sutamarchan","DEPARTAMENTO":"Boyaca","LATITUD":5.640030759,"LONGITUD":-73.625987727},{"CIUDAD_DEPARTAMENTO":"Sutatenza - Boyaca","CIUDAD":"Sutatenza","DEPARTAMENTO":"Boyaca","LATITUD":5.030711335,"LONGITUD":-73.412244005},{"CIUDAD_DEPARTAMENTO":"Tasco - Boyaca","CIUDAD":"Tasco","DEPARTAMENTO":"Boyaca","LATITUD":5.882294313,"LONGITUD":-72.726268173},{"CIUDAD_DEPARTAMENTO":"Tenza - Boyaca","CIUDAD":"Tenza","DEPARTAMENTO":"Boyaca","LATITUD":5.071413139,"LONGITUD":-73.424796988},{"CIUDAD_DEPARTAMENTO":"Tibana - Boyaca","CIUDAD":"Tibana","DEPARTAMENTO":"Boyaca","LATITUD":5.301116649,"LONGITUD":-73.393252095},{"CIUDAD_DEPARTAMENTO":"Tibasosa - Boyaca","CIUDAD":"Tibasosa","DEPARTAMENTO":"Boyaca","LATITUD":5.747329389,"LONGITUD":-73.011147244},{"CIUDAD_DEPARTAMENTO":"Tinjaca - Boyaca","CIUDAD":"Tinjaca","DEPARTAMENTO":"Boyaca","LATITUD":5.577566497,"LONGITUD":-73.676145721},{"CIUDAD_DEPARTAMENTO":"Tipacoque - Boyaca","CIUDAD":"Tipacoque","DEPARTAMENTO":"Boyaca","LATITUD":6.42035349,"LONGITUD":-72.694635834},{"CIUDAD_DEPARTAMENTO":"Toca - Boyaca","CIUDAD":"Toca","DEPARTAMENTO":"Boyaca","LATITUD":5.580254287,"LONGITUD":-73.160696902},{"CIUDAD_DEPARTAMENTO":"Togüi - Boyaca","CIUDAD":"Togüi","DEPARTAMENTO":"Boyaca","LATITUD":5.921830062,"LONGITUD":-73.489218055},{"CIUDAD_DEPARTAMENTO":"Topaga - Boyaca","CIUDAD":"Topaga","DEPARTAMENTO":"Boyaca","LATITUD":5.765350303,"LONGITUD":-72.836729576},{"CIUDAD_DEPARTAMENTO":"Tota - Boyaca","CIUDAD":"Tota","DEPARTAMENTO":"Boyaca","LATITUD":5.501297215,"LONGITUD":-72.996332969},{"CIUDAD_DEPARTAMENTO":"Tunungua - Boyaca","CIUDAD":"Tunungua","DEPARTAMENTO":"Boyaca","LATITUD":5.720301516,"LONGITUD":-73.943309265},{"CIUDAD_DEPARTAMENTO":"Turmeque - Boyaca","CIUDAD":"Turmeque","DEPARTAMENTO":"Boyaca","LATITUD":5.305697418,"LONGITUD":-73.509087138},{"CIUDAD_DEPARTAMENTO":"Tuta - Boyaca","CIUDAD":"Tuta","DEPARTAMENTO":"Boyaca","LATITUD":5.678126998,"LONGITUD":-73.173430534},{"CIUDAD_DEPARTAMENTO":"Tutaza - Boyaca","CIUDAD":"Tutaza","DEPARTAMENTO":"Boyaca","LATITUD":6.078051903,"LONGITUD":-72.857078319},{"CIUDAD_DEPARTAMENTO":"Umbita - Boyaca","CIUDAD":"Umbita","DEPARTAMENTO":"Boyaca","LATITUD":5.217241368,"LONGITUD":-73.463384768},{"CIUDAD_DEPARTAMENTO":"Ventaquemada - Boyaca","CIUDAD":"Ventaquemada","DEPARTAMENTO":"Boyaca","LATITUD":5.383385481,"LONGITUD":-73.520979424},{"CIUDAD_DEPARTAMENTO":"Viracacha - Boyaca","CIUDAD":"Viracacha","DEPARTAMENTO":"Boyaca","LATITUD":5.440558216,"LONGITUD":-73.266274556},{"CIUDAD_DEPARTAMENTO":"Zetaquira - Boyaca","CIUDAD":"Zetaquira","DEPARTAMENTO":"Boyaca","LATITUD":5.285635983,"LONGITUD":-73.167630912},{"CIUDAD_DEPARTAMENTO":"Manizales - Caldas","CIUDAD":"Manizales","DEPARTAMENTO":"Caldas","LATITUD":5.08343301,"LONGITUD":-75.50727881},{"CIUDAD_DEPARTAMENTO":"Aguadas - Caldas","CIUDAD":"Aguadas","DEPARTAMENTO":"Caldas","LATITUD":5.616204006,"LONGITUD":-75.455447104},{"CIUDAD_DEPARTAMENTO":"Anserma - Caldas","CIUDAD":"Anserma","DEPARTAMENTO":"Caldas","LATITUD":5.20029922,"LONGITUD":-75.752890779},{"CIUDAD_DEPARTAMENTO":"Aranzazu - Caldas","CIUDAD":"Aranzazu","DEPARTAMENTO":"Caldas","LATITUD":5.265539969,"LONGITUD":-75.473926194},{"CIUDAD_DEPARTAMENTO":"Belalcazar - Caldas","CIUDAD":"Belalcazar","DEPARTAMENTO":"Caldas","LATITUD":4.99467728,"LONGITUD":-75.812259892},{"CIUDAD_DEPARTAMENTO":"Chinchina - Caldas","CIUDAD":"Chinchina","DEPARTAMENTO":"Caldas","LATITUD":4.974340569,"LONGITUD":-75.659546861},{"CIUDAD_DEPARTAMENTO":"Filadelfia - Caldas","CIUDAD":"Filadelfia","DEPARTAMENTO":"Caldas","LATITUD":5.285743777,"LONGITUD":-75.589787839},{"CIUDAD_DEPARTAMENTO":"La Dorada - Caldas","CIUDAD":"La Dorada","DEPARTAMENTO":"Caldas","LATITUD":5.410515691,"LONGITUD":-74.72114262},{"CIUDAD_DEPARTAMENTO":"La Merced - Caldas","CIUDAD":"La Merced","DEPARTAMENTO":"Caldas","LATITUD":5.393185716,"LONGITUD":-75.557910707},{"CIUDAD_DEPARTAMENTO":"Manzanares - Caldas","CIUDAD":"Manzanares","DEPARTAMENTO":"Caldas","LATITUD":5.23295391,"LONGITUD":-75.152634472},{"CIUDAD_DEPARTAMENTO":"Marmato - Caldas","CIUDAD":"Marmato","DEPARTAMENTO":"Caldas","LATITUD":5.492632029,"LONGITUD":-75.60209955},{"CIUDAD_DEPARTAMENTO":"Marquetalia - Caldas","CIUDAD":"Marquetalia","DEPARTAMENTO":"Caldas","LATITUD":5.309142491,"LONGITUD":-75.041178923},{"CIUDAD_DEPARTAMENTO":"Marulanda - Caldas","CIUDAD":"Marulanda","DEPARTAMENTO":"Caldas","LATITUD":5.235585244,"LONGITUD":-75.283166479},{"CIUDAD_DEPARTAMENTO":"Neira - Caldas","CIUDAD":"Neira","DEPARTAMENTO":"Caldas","LATITUD":5.183358589,"LONGITUD":-75.506929774},{"CIUDAD_DEPARTAMENTO":"Norcasia - Caldas","CIUDAD":"Norcasia","DEPARTAMENTO":"Caldas","LATITUD":5.638062349,"LONGITUD":-74.854927072},{"CIUDAD_DEPARTAMENTO":"Pacora - Caldas","CIUDAD":"Pacora","DEPARTAMENTO":"Caldas","LATITUD":5.500035035,"LONGITUD":-75.482450565},{"CIUDAD_DEPARTAMENTO":"Palestina - Caldas","CIUDAD":"Palestina","DEPARTAMENTO":"Caldas","LATITUD":5.050342543,"LONGITUD":-75.661762659},{"CIUDAD_DEPARTAMENTO":"Pensilvania - Caldas","CIUDAD":"Pensilvania","DEPARTAMENTO":"Caldas","LATITUD":5.407187836,"LONGITUD":-75.166839962},{"CIUDAD_DEPARTAMENTO":"Riosucio - Caldas","CIUDAD":"Riosucio","DEPARTAMENTO":"Caldas","LATITUD":5.442275418,"LONGITUD":-75.75220499},{"CIUDAD_DEPARTAMENTO":"Risaralda - Caldas","CIUDAD":"Risaralda","DEPARTAMENTO":"Caldas","LATITUD":5.097563816,"LONGITUD":-75.733351662},{"CIUDAD_DEPARTAMENTO":"Salamina - Caldas","CIUDAD":"Salamina","DEPARTAMENTO":"Caldas","LATITUD":5.370332425,"LONGITUD":-75.409621766},{"CIUDAD_DEPARTAMENTO":"Samana - Caldas","CIUDAD":"Samana","DEPARTAMENTO":"Caldas","LATITUD":5.519692873,"LONGITUD":-74.99718577},{"CIUDAD_DEPARTAMENTO":"San Jose - Caldas","CIUDAD":"San Jose","DEPARTAMENTO":"Caldas","LATITUD":5.083424513,"LONGITUD":-75.810178904},{"CIUDAD_DEPARTAMENTO":"Supia - Caldas","CIUDAD":"Supia","DEPARTAMENTO":"Caldas","LATITUD":5.45295802,"LONGITUD":-75.640357045},{"CIUDAD_DEPARTAMENTO":"Victoria - Caldas","CIUDAD":"Victoria","DEPARTAMENTO":"Caldas","LATITUD":5.447542859,"LONGITUD":-74.836225017},{"CIUDAD_DEPARTAMENTO":"Villamaria - Caldas","CIUDAD":"Villamaria","DEPARTAMENTO":"Caldas","LATITUD":4.940211591,"LONGITUD":-75.435440137},{"CIUDAD_DEPARTAMENTO":"Viterbo - Caldas","CIUDAD":"Viterbo","DEPARTAMENTO":"Caldas","LATITUD":5.047822054,"LONGITUD":-75.879297},{"CIUDAD_DEPARTAMENTO":"Florencia - Caqueta","CIUDAD":"Florencia","DEPARTAMENTO":"Caqueta","LATITUD":1.749138704,"LONGITUD":-75.558239064},{"CIUDAD_DEPARTAMENTO":"Albania - Caqueta","CIUDAD":"Albania","DEPARTAMENTO":"Caqueta","LATITUD":1.22786549,"LONGITUD":-75.882326508},{"CIUDAD_DEPARTAMENTO":"Belen De Los Andaquies - Caqueta","CIUDAD":"Belen De Los Andaquies","DEPARTAMENTO":"Caqueta","LATITUD":1.536174657,"LONGITUD":-75.909475036},{"CIUDAD_DEPARTAMENTO":"Cartagena Del Chaira - Caqueta","CIUDAD":"Cartagena Del Chaira","DEPARTAMENTO":"Caqueta","LATITUD":0.647693081,"LONGITUD":-74.272354991},{"CIUDAD_DEPARTAMENTO":"Curillo - Caqueta","CIUDAD":"Curillo","DEPARTAMENTO":"Caqueta","LATITUD":1.115379292,"LONGITUD":-75.973284517},{"CIUDAD_DEPARTAMENTO":"El Doncello - Caqueta","CIUDAD":"El Doncello","DEPARTAMENTO":"Caqueta","LATITUD":1.713734697,"LONGITUD":-75.268781092},{"CIUDAD_DEPARTAMENTO":"El Paujil - Caqueta","CIUDAD":"El Paujil","DEPARTAMENTO":"Caqueta","LATITUD":1.476630016,"LONGITUD":-75.202318246},{"CIUDAD_DEPARTAMENTO":"La Montañita - Caqueta","CIUDAD":"La Montañita","DEPARTAMENTO":"Caqueta","LATITUD":1.302860442,"LONGITUD":-75.235727319},{"CIUDAD_DEPARTAMENTO":"Milan - Caqueta","CIUDAD":"Milan","DEPARTAMENTO":"Caqueta","LATITUD":1.146692554,"LONGITUD":-75.386647638},{"CIUDAD_DEPARTAMENTO":"Morelia - Caqueta","CIUDAD":"Morelia","DEPARTAMENTO":"Caqueta","LATITUD":1.38299611,"LONGITUD":-75.673811234},{"CIUDAD_DEPARTAMENTO":"Puerto Rico - Caqueta","CIUDAD":"Puerto Rico","DEPARTAMENTO":"Caqueta","LATITUD":2.018940891,"LONGITUD":-75.073086267},{"CIUDAD_DEPARTAMENTO":"San Jose Del Fragua - Caqueta","CIUDAD":"San Jose Del Fragua","DEPARTAMENTO":"Caqueta","LATITUD":1.304702314,"LONGITUD":-76.110005942},{"CIUDAD_DEPARTAMENTO":"San Vicente Del Caguan - Caqueta","CIUDAD":"San Vicente Del Caguan","DEPARTAMENTO":"Caqueta","LATITUD":1.308465061,"LONGITUD":-74.197469706},{"CIUDAD_DEPARTAMENTO":"Solano - Caqueta","CIUDAD":"Solano","DEPARTAMENTO":"Caqueta","LATITUD":0.096131862,"LONGITUD":-72.320364019},{"CIUDAD_DEPARTAMENTO":"Solita - Caqueta","CIUDAD":"Solita","DEPARTAMENTO":"Caqueta","LATITUD":0.943939454,"LONGITUD":-75.646685441},{"CIUDAD_DEPARTAMENTO":"Valparaiso - Caqueta","CIUDAD":"Valparaiso","DEPARTAMENTO":"Caqueta","LATITUD":1.07534915,"LONGITUD":-75.737790038},{"CIUDAD_DEPARTAMENTO":"Popayan - Cauca","CIUDAD":"Popayan","DEPARTAMENTO":"Cauca","LATITUD":2.471704362,"LONGITUD":-76.591944191},{"CIUDAD_DEPARTAMENTO":"Almaguer - Cauca","CIUDAD":"Almaguer","DEPARTAMENTO":"Cauca","LATITUD":1.912440521,"LONGITUD":-76.834945194},{"CIUDAD_DEPARTAMENTO":"Argelia - Cauca","CIUDAD":"Argelia","DEPARTAMENTO":"Cauca","LATITUD":2.329337283,"LONGITUD":-77.26314906},{"CIUDAD_DEPARTAMENTO":"Balboa - Cauca","CIUDAD":"Balboa","DEPARTAMENTO":"Cauca","LATITUD":2.084732945,"LONGITUD":-77.208813302},{"CIUDAD_DEPARTAMENTO":"Bolivar - Cauca","CIUDAD":"Bolivar","DEPARTAMENTO":"Cauca","LATITUD":1.853951938,"LONGITUD":-76.963374538},{"CIUDAD_DEPARTAMENTO":"Buenos Aires - Cauca","CIUDAD":"Buenos Aires","DEPARTAMENTO":"Cauca","LATITUD":2.988923885,"LONGITUD":-76.621589509},{"CIUDAD_DEPARTAMENTO":"Cajibio - Cauca","CIUDAD":"Cajibio","DEPARTAMENTO":"Cauca","LATITUD":2.643209848,"LONGITUD":-76.701389144},{"CIUDAD_DEPARTAMENTO":"Caldono - Cauca","CIUDAD":"Caldono","DEPARTAMENTO":"Cauca","LATITUD":2.803845691,"LONGITUD":-76.427193766},{"CIUDAD_DEPARTAMENTO":"Caloto - Cauca","CIUDAD":"Caloto","DEPARTAMENTO":"Cauca","LATITUD":3.062875557,"LONGITUD":-76.321279771},{"CIUDAD_DEPARTAMENTO":"Corinto - Cauca","CIUDAD":"Corinto","DEPARTAMENTO":"Cauca","LATITUD":3.136753606,"LONGITUD":-76.209645692},{"CIUDAD_DEPARTAMENTO":"El Tambo - Cauca","CIUDAD":"El Tambo","DEPARTAMENTO":"Cauca","LATITUD":2.534488312,"LONGITUD":-77.005112065},{"CIUDAD_DEPARTAMENTO":"Florencia - Cauca","CIUDAD":"Florencia","DEPARTAMENTO":"Cauca","LATITUD":1.69453474,"LONGITUD":-77.087357234},{"CIUDAD_DEPARTAMENTO":"Guachene - Cauca","CIUDAD":"Guachene","DEPARTAMENTO":"Cauca","LATITUD":3.144389993,"LONGITUD":-76.392348107},{"CIUDAD_DEPARTAMENTO":"Guapi - Cauca","CIUDAD":"Guapi","DEPARTAMENTO":"Cauca","LATITUD":2.41326696,"LONGITUD":-77.690475305},{"CIUDAD_DEPARTAMENTO":"Inza - Cauca","CIUDAD":"Inza","DEPARTAMENTO":"Cauca","LATITUD":2.499058783,"LONGITUD":-76.137625312},{"CIUDAD_DEPARTAMENTO":"Jambalo - Cauca","CIUDAD":"Jambalo","DEPARTAMENTO":"Cauca","LATITUD":2.84981013,"LONGITUD":-76.31124919},{"CIUDAD_DEPARTAMENTO":"La Sierra - Cauca","CIUDAD":"La Sierra","DEPARTAMENTO":"Cauca","LATITUD":2.187473572,"LONGITUD":-76.78228032},{"CIUDAD_DEPARTAMENTO":"La Vega - Cauca","CIUDAD":"La Vega","DEPARTAMENTO":"Cauca","LATITUD":2.053933426,"LONGITUD":-76.758806204},{"CIUDAD_DEPARTAMENTO":"Lopez De Micay - Cauca","CIUDAD":"Lopez De Micay","DEPARTAMENTO":"Cauca","LATITUD":2.95819877,"LONGITUD":-77.242121575},{"CIUDAD_DEPARTAMENTO":"Mercaderes - Cauca","CIUDAD":"Mercaderes","DEPARTAMENTO":"Cauca","LATITUD":1.793825164,"LONGITUD":-77.180603812},{"CIUDAD_DEPARTAMENTO":"Miranda - Cauca","CIUDAD":"Miranda","DEPARTAMENTO":"Cauca","LATITUD":3.228235212,"LONGITUD":-76.216708274},{"CIUDAD_DEPARTAMENTO":"Morales - Cauca","CIUDAD":"Morales","DEPARTAMENTO":"Cauca","LATITUD":2.773663981,"LONGITUD":-76.746051522},{"CIUDAD_DEPARTAMENTO":"Padilla - Cauca","CIUDAD":"Padilla","DEPARTAMENTO":"Cauca","LATITUD":3.194730618,"LONGITUD":-76.336241803},{"CIUDAD_DEPARTAMENTO":"Paez - Cauca","CIUDAD":"Paez","DEPARTAMENTO":"Cauca","LATITUD":2.733887702,"LONGITUD":-75.993682638},{"CIUDAD_DEPARTAMENTO":"Patia - Cauca","CIUDAD":"Patia","DEPARTAMENTO":"Cauca","LATITUD":2.157983906,"LONGITUD":-77.046576199},{"CIUDAD_DEPARTAMENTO":"Piamonte - Cauca","CIUDAD":"Piamonte","DEPARTAMENTO":"Cauca","LATITUD":1.054128816,"LONGITUD":-76.444327103},{"CIUDAD_DEPARTAMENTO":"Piendamo Tunia - Cauca","CIUDAD":"Piendamo Tunia","DEPARTAMENTO":"Cauca","LATITUD":2.702420026,"LONGITUD":-76.537704551},{"CIUDAD_DEPARTAMENTO":"Puerto Tejada - Cauca","CIUDAD":"Puerto Tejada","DEPARTAMENTO":"Cauca","LATITUD":3.266724205,"LONGITUD":-76.41846353},{"CIUDAD_DEPARTAMENTO":"Purace - Cauca","CIUDAD":"Purace","DEPARTAMENTO":"Cauca","LATITUD":2.262153618,"LONGITUD":-76.448269377},{"CIUDAD_DEPARTAMENTO":"Rosas - Cauca","CIUDAD":"Rosas","DEPARTAMENTO":"Cauca","LATITUD":2.260421954,"LONGITUD":-76.74582033},{"CIUDAD_DEPARTAMENTO":"San Sebastian - Cauca","CIUDAD":"San Sebastian","DEPARTAMENTO":"Cauca","LATITUD":1.856261815,"LONGITUD":-76.716524236},{"CIUDAD_DEPARTAMENTO":"Santander De Quilichao - Cauca","CIUDAD":"Santander De Quilichao","DEPARTAMENTO":"Cauca","LATITUD":2.984467338,"LONGITUD":-76.498731453},{"CIUDAD_DEPARTAMENTO":"Santa Rosa - Cauca","CIUDAD":"Santa Rosa","DEPARTAMENTO":"Cauca","LATITUD":1.52002179,"LONGITUD":-76.538762806},{"CIUDAD_DEPARTAMENTO":"Silvia - Cauca","CIUDAD":"Silvia","DEPARTAMENTO":"Cauca","LATITUD":2.651291894,"LONGITUD":-76.350573563},{"CIUDAD_DEPARTAMENTO":"Sotara Paispamba - Cauca","CIUDAD":"Sotara Paispamba","DEPARTAMENTO":"Cauca","LATITUD":2.231820541,"LONGITUD":-76.611466326},{"CIUDAD_DEPARTAMENTO":"Suarez - Cauca","CIUDAD":"Suarez","DEPARTAMENTO":"Cauca","LATITUD":2.936865997,"LONGITUD":-76.745824296},{"CIUDAD_DEPARTAMENTO":"Sucre - Cauca","CIUDAD":"Sucre","DEPARTAMENTO":"Cauca","LATITUD":2.057735184,"LONGITUD":-76.909939647},{"CIUDAD_DEPARTAMENTO":"Timbio - Cauca","CIUDAD":"Timbio","DEPARTAMENTO":"Cauca","LATITUD":2.369625312,"LONGITUD":-76.710519323},{"CIUDAD_DEPARTAMENTO":"Timbiqui - Cauca","CIUDAD":"Timbiqui","DEPARTAMENTO":"Cauca","LATITUD":2.699475127,"LONGITUD":-77.491315765},{"CIUDAD_DEPARTAMENTO":"Toribio - Cauca","CIUDAD":"Toribio","DEPARTAMENTO":"Cauca","LATITUD":2.975771999,"LONGITUD":-76.203315664},{"CIUDAD_DEPARTAMENTO":"Totoro - Cauca","CIUDAD":"Totoro","DEPARTAMENTO":"Cauca","LATITUD":2.475213085,"LONGITUD":-76.39675937},{"CIUDAD_DEPARTAMENTO":"Villa Rica - Cauca","CIUDAD":"Villa Rica","DEPARTAMENTO":"Cauca","LATITUD":3.180627317,"LONGITUD":-76.464455581},{"CIUDAD_DEPARTAMENTO":"Valledupar - Cesar","CIUDAD":"Valledupar","DEPARTAMENTO":"Cesar","LATITUD":10.218902768,"LONGITUD":-73.457847638},{"CIUDAD_DEPARTAMENTO":"Aguachica - Cesar","CIUDAD":"Aguachica","DEPARTAMENTO":"Cesar","LATITUD":8.248735219,"LONGITUD":-73.6227405},{"CIUDAD_DEPARTAMENTO":"Agustin Codazzi - Cesar","CIUDAD":"Agustin Codazzi","DEPARTAMENTO":"Cesar","LATITUD":9.949215908,"LONGITUD":-73.223582441},{"CIUDAD_DEPARTAMENTO":"Astrea - Cesar","CIUDAD":"Astrea","DEPARTAMENTO":"Cesar","LATITUD":9.510727925,"LONGITUD":-73.942146411},{"CIUDAD_DEPARTAMENTO":"Becerril - Cesar","CIUDAD":"Becerril","DEPARTAMENTO":"Cesar","LATITUD":9.727732939,"LONGITUD":-73.252505222},{"CIUDAD_DEPARTAMENTO":"Bosconia - Cesar","CIUDAD":"Bosconia","DEPARTAMENTO":"Cesar","LATITUD":9.946391309,"LONGITUD":-73.866288153},{"CIUDAD_DEPARTAMENTO":"Chimichagua - Cesar","CIUDAD":"Chimichagua","DEPARTAMENTO":"Cesar","LATITUD":9.27797765,"LONGITUD":-73.846979027},{"CIUDAD_DEPARTAMENTO":"Chiriguana - Cesar","CIUDAD":"Chiriguana","DEPARTAMENTO":"Cesar","LATITUD":9.426648354,"LONGITUD":-73.547978944},{"CIUDAD_DEPARTAMENTO":"Curumani - Cesar","CIUDAD":"Curumani","DEPARTAMENTO":"Cesar","LATITUD":9.238771332,"LONGITUD":-73.488108612},{"CIUDAD_DEPARTAMENTO":"El Copey - Cesar","CIUDAD":"El Copey","DEPARTAMENTO":"Cesar","LATITUD":10.199953563,"LONGITUD":-73.912820636},{"CIUDAD_DEPARTAMENTO":"El Paso - Cesar","CIUDAD":"El Paso","DEPARTAMENTO":"Cesar","LATITUD":9.683474681,"LONGITUD":-73.738337782},{"CIUDAD_DEPARTAMENTO":"Gamarra - Cesar","CIUDAD":"Gamarra","DEPARTAMENTO":"Cesar","LATITUD":8.337726622,"LONGITUD":-73.706491986},{"CIUDAD_DEPARTAMENTO":"Gonzalez - Cesar","CIUDAD":"Gonzalez","DEPARTAMENTO":"Cesar","LATITUD":8.405516522,"LONGITUD":-73.375373085},{"CIUDAD_DEPARTAMENTO":"La Gloria - Cesar","CIUDAD":"La Gloria","DEPARTAMENTO":"Cesar","LATITUD":8.588002247,"LONGITUD":-73.616023836},{"CIUDAD_DEPARTAMENTO":"La Jagua De Ibirico - Cesar","CIUDAD":"La Jagua De Ibirico","DEPARTAMENTO":"Cesar","LATITUD":9.52099808,"LONGITUD":-73.322493379},{"CIUDAD_DEPARTAMENTO":"Manaure Balcon Del Cesar - Cesar","CIUDAD":"Manaure Balcon Del Cesar","DEPARTAMENTO":"Cesar","LATITUD":10.38027852,"LONGITUD":-73.007062754},{"CIUDAD_DEPARTAMENTO":"Pailitas - Cesar","CIUDAD":"Pailitas","DEPARTAMENTO":"Cesar","LATITUD":8.938916143,"LONGITUD":-73.572472125},{"CIUDAD_DEPARTAMENTO":"Pelaya - Cesar","CIUDAD":"Pelaya","DEPARTAMENTO":"Cesar","LATITUD":8.764116734,"LONGITUD":-73.632955464},{"CIUDAD_DEPARTAMENTO":"Pueblo Bello - Cesar","CIUDAD":"Pueblo Bello","DEPARTAMENTO":"Cesar","LATITUD":10.417368738,"LONGITUD":-73.614506323},{"CIUDAD_DEPARTAMENTO":"Rio De Oro - Cesar","CIUDAD":"Rio De Oro","DEPARTAMENTO":"Cesar","LATITUD":8.201070245,"LONGITUD":-73.487501265},{"CIUDAD_DEPARTAMENTO":"La Paz - Cesar","CIUDAD":"La Paz","DEPARTAMENTO":"Cesar","LATITUD":10.244405624,"LONGITUD":-73.078245692},{"CIUDAD_DEPARTAMENTO":"San Alberto - Cesar","CIUDAD":"San Alberto","DEPARTAMENTO":"Cesar","LATITUD":7.769815987,"LONGITUD":-73.472188879},{"CIUDAD_DEPARTAMENTO":"San Diego - Cesar","CIUDAD":"San Diego","DEPARTAMENTO":"Cesar","LATITUD":10.169527121,"LONGITUD":-73.287982702},{"CIUDAD_DEPARTAMENTO":"San Martin - Cesar","CIUDAD":"San Martin","DEPARTAMENTO":"Cesar","LATITUD":7.937788454,"LONGITUD":-73.544363121},{"CIUDAD_DEPARTAMENTO":"Tamalameque - Cesar","CIUDAD":"Tamalameque","DEPARTAMENTO":"Cesar","LATITUD":8.902075012,"LONGITUD":-73.763396197},{"CIUDAD_DEPARTAMENTO":"Monteria - Cordoba","CIUDAD":"Monteria","DEPARTAMENTO":"Cordoba","LATITUD":8.584698016,"LONGITUD":-75.950550788},{"CIUDAD_DEPARTAMENTO":"Ayapel - Cordoba","CIUDAD":"Ayapel","DEPARTAMENTO":"Cordoba","LATITUD":8.265768688,"LONGITUD":-75.048684357},{"CIUDAD_DEPARTAMENTO":"Buenavista - Cordoba","CIUDAD":"Buenavista","DEPARTAMENTO":"Cordoba","LATITUD":8.191397953,"LONGITUD":-75.433825319},{"CIUDAD_DEPARTAMENTO":"Canalete - Cordoba","CIUDAD":"Canalete","DEPARTAMENTO":"Cordoba","LATITUD":8.7240958,"LONGITUD":-76.237790807},{"CIUDAD_DEPARTAMENTO":"Cerete - Cordoba","CIUDAD":"Cerete","DEPARTAMENTO":"Cordoba","LATITUD":8.895667051,"LONGITUD":-75.878423912},{"CIUDAD_DEPARTAMENTO":"Chima - Cordoba","CIUDAD":"Chima","DEPARTAMENTO":"Cordoba","LATITUD":9.11024941,"LONGITUD":-75.652373511},{"CIUDAD_DEPARTAMENTO":"Chinu - Cordoba","CIUDAD":"Chinu","DEPARTAMENTO":"Cordoba","LATITUD":9.053287104,"LONGITUD":-75.373873626},{"CIUDAD_DEPARTAMENTO":"Cienaga De Oro - Cordoba","CIUDAD":"Cienaga De Oro","DEPARTAMENTO":"Cordoba","LATITUD":8.841811894,"LONGITUD":-75.607798292},{"CIUDAD_DEPARTAMENTO":"Cotorra - Cordoba","CIUDAD":"Cotorra","DEPARTAMENTO":"Cordoba","LATITUD":9.071460219,"LONGITUD":-75.754592755},{"CIUDAD_DEPARTAMENTO":"La Apartada - Cordoba","CIUDAD":"La Apartada","DEPARTAMENTO":"Cordoba","LATITUD":8.052218422,"LONGITUD":-75.28816022},{"CIUDAD_DEPARTAMENTO":"Lorica - Cordoba","CIUDAD":"Lorica","DEPARTAMENTO":"Cordoba","LATITUD":9.165034998,"LONGITUD":-75.909781236},{"CIUDAD_DEPARTAMENTO":"Los Cordobas - Cordoba","CIUDAD":"Los Cordobas","DEPARTAMENTO":"Cordoba","LATITUD":8.823307063,"LONGITUD":-76.343055201},{"CIUDAD_DEPARTAMENTO":"Momil - Cordoba","CIUDAD":"Momil","DEPARTAMENTO":"Cordoba","LATITUD":9.265461621,"LONGITUD":-75.650908762},{"CIUDAD_DEPARTAMENTO":"Montelibano - Cordoba","CIUDAD":"Montelibano","DEPARTAMENTO":"Cordoba","LATITUD":7.866432635,"LONGITUD":-75.875339255},{"CIUDAD_DEPARTAMENTO":"Moñitos - Cordoba","CIUDAD":"Moñitos","DEPARTAMENTO":"Cordoba","LATITUD":9.190515343,"LONGITUD":-76.119317094},{"CIUDAD_DEPARTAMENTO":"Planeta Rica - Cordoba","CIUDAD":"Planeta Rica","DEPARTAMENTO":"Cordoba","LATITUD":8.181108488,"LONGITUD":-75.68923803},{"CIUDAD_DEPARTAMENTO":"Pueblo Nuevo - Cordoba","CIUDAD":"Pueblo Nuevo","DEPARTAMENTO":"Cordoba","LATITUD":8.481339568,"LONGITUD":-75.405161542},{"CIUDAD_DEPARTAMENTO":"Puerto Escondido - Cordoba","CIUDAD":"Puerto Escondido","DEPARTAMENTO":"Cordoba","LATITUD":8.988667731,"LONGITUD":-76.194059124},{"CIUDAD_DEPARTAMENTO":"Puerto Libertador - Cordoba","CIUDAD":"Puerto Libertador","DEPARTAMENTO":"Cordoba","LATITUD":7.711515736,"LONGITUD":-75.771232238},{"CIUDAD_DEPARTAMENTO":"Purisima De La Concepcion - Cordoba","CIUDAD":"Purisima De La Concepcion","DEPARTAMENTO":"Cordoba","LATITUD":9.282386127,"LONGITUD":-75.721293921},{"CIUDAD_DEPARTAMENTO":"Sahagun - Cordoba","CIUDAD":"Sahagun","DEPARTAMENTO":"Cordoba","LATITUD":8.799007016,"LONGITUD":-75.429256639},{"CIUDAD_DEPARTAMENTO":"San Andres De Sotavento - Cordoba","CIUDAD":"San Andres De Sotavento","DEPARTAMENTO":"Cordoba","LATITUD":9.121296353,"LONGITUD":-75.520917113},{"CIUDAD_DEPARTAMENTO":"San Antero - Cordoba","CIUDAD":"San Antero","DEPARTAMENTO":"Cordoba","LATITUD":9.359667489,"LONGITUD":-75.787002521},{"CIUDAD_DEPARTAMENTO":"San Bernardo Del Viento - Cordoba","CIUDAD":"San Bernardo Del Viento","DEPARTAMENTO":"Cordoba","LATITUD":9.330098329,"LONGITUD":-75.976238578},{"CIUDAD_DEPARTAMENTO":"San Carlos - Cordoba","CIUDAD":"San Carlos","DEPARTAMENTO":"Cordoba","LATITUD":8.706464263,"LONGITUD":-75.692518245},{"CIUDAD_DEPARTAMENTO":"San Jose De Ure - Cordoba","CIUDAD":"San Jose De Ure","DEPARTAMENTO":"Cordoba","LATITUD":7.753054395,"LONGITUD":-75.567247397},{"CIUDAD_DEPARTAMENTO":"San Pelayo - Cordoba","CIUDAD":"San Pelayo","DEPARTAMENTO":"Cordoba","LATITUD":8.987777392,"LONGITUD":-75.909587708},{"CIUDAD_DEPARTAMENTO":"Tierralta - Cordoba","CIUDAD":"Tierralta","DEPARTAMENTO":"Cordoba","LATITUD":7.813896829,"LONGITUD":-76.16846678},{"CIUDAD_DEPARTAMENTO":"Tuchin - Cordoba","CIUDAD":"Tuchin","DEPARTAMENTO":"Cordoba","LATITUD":9.224630803,"LONGITUD":-75.544105925},{"CIUDAD_DEPARTAMENTO":"Valencia - Cordoba","CIUDAD":"Valencia","DEPARTAMENTO":"Cordoba","LATITUD":8.219904128,"LONGITUD":-76.2213286},{"CIUDAD_DEPARTAMENTO":"Agua De Dios - Cundinamarca","CIUDAD":"Agua De Dios","DEPARTAMENTO":"Cundinamarca","LATITUD":4.372744676,"LONGITUD":-74.671110509},{"CIUDAD_DEPARTAMENTO":"Alban - Cundinamarca","CIUDAD":"Alban","DEPARTAMENTO":"Cundinamarca","LATITUD":4.891121638,"LONGITUD":-74.442784317},{"CIUDAD_DEPARTAMENTO":"Anapoima - Cundinamarca","CIUDAD":"Anapoima","DEPARTAMENTO":"Cundinamarca","LATITUD":4.559962881,"LONGITUD":-74.525695298},{"CIUDAD_DEPARTAMENTO":"Anolaima - Cundinamarca","CIUDAD":"Anolaima","DEPARTAMENTO":"Cundinamarca","LATITUD":4.789313614,"LONGITUD":-74.461942563},{"CIUDAD_DEPARTAMENTO":"Arbelaez - Cundinamarca","CIUDAD":"Arbelaez","DEPARTAMENTO":"Cundinamarca","LATITUD":4.232786985,"LONGITUD":-74.395762911},{"CIUDAD_DEPARTAMENTO":"Beltran - Cundinamarca","CIUDAD":"Beltran","DEPARTAMENTO":"Cundinamarca","LATITUD":4.791721105,"LONGITUD":-74.714913986},{"CIUDAD_DEPARTAMENTO":"Bituima - Cundinamarca","CIUDAD":"Bituima","DEPARTAMENTO":"Cundinamarca","LATITUD":4.847821091,"LONGITUD":-74.528627661},{"CIUDAD_DEPARTAMENTO":"Bojaca - Cundinamarca","CIUDAD":"Bojaca","DEPARTAMENTO":"Cundinamarca","LATITUD":4.705576252,"LONGITUD":-74.335407699},{"CIUDAD_DEPARTAMENTO":"Cabrera - Cundinamarca","CIUDAD":"Cabrera","DEPARTAMENTO":"Cundinamarca","LATITUD":3.91861924,"LONGITUD":-74.44615606},{"CIUDAD_DEPARTAMENTO":"Cachipay - Cundinamarca","CIUDAD":"Cachipay","DEPARTAMENTO":"Cundinamarca","LATITUD":4.723063341,"LONGITUD":-74.459195283},{"CIUDAD_DEPARTAMENTO":"Cajica - Cundinamarca","CIUDAD":"Cajica","DEPARTAMENTO":"Cundinamarca","LATITUD":4.930402779,"LONGITUD":-74.029851152},{"CIUDAD_DEPARTAMENTO":"Caparrapi - Cundinamarca","CIUDAD":"Caparrapi","DEPARTAMENTO":"Cundinamarca","LATITUD":5.381501399,"LONGITUD":-74.521235947},{"CIUDAD_DEPARTAMENTO":"Caqueza - Cundinamarca","CIUDAD":"Caqueza","DEPARTAMENTO":"Cundinamarca","LATITUD":4.402259457,"LONGITUD":-73.94482435},{"CIUDAD_DEPARTAMENTO":"Carmen De Carupa - Cundinamarca","CIUDAD":"Carmen De Carupa","DEPARTAMENTO":"Cundinamarca","LATITUD":5.338856556,"LONGITUD":-73.926148172},{"CIUDAD_DEPARTAMENTO":"Chaguani - Cundinamarca","CIUDAD":"Chaguani","DEPARTAMENTO":"Cundinamarca","LATITUD":4.95425175,"LONGITUD":-74.630901385},{"CIUDAD_DEPARTAMENTO":"Chia - Cundinamarca","CIUDAD":"Chia","DEPARTAMENTO":"Cundinamarca","LATITUD":4.857823671,"LONGITUD":-74.038095385},{"CIUDAD_DEPARTAMENTO":"Chipaque - Cundinamarca","CIUDAD":"Chipaque","DEPARTAMENTO":"Cundinamarca","LATITUD":4.463746629,"LONGITUD":-74.04605246},{"CIUDAD_DEPARTAMENTO":"Choachi - Cundinamarca","CIUDAD":"Choachi","DEPARTAMENTO":"Cundinamarca","LATITUD":4.578183896,"LONGITUD":-73.952900544},{"CIUDAD_DEPARTAMENTO":"Choconta - Cundinamarca","CIUDAD":"Choconta","DEPARTAMENTO":"Cundinamarca","LATITUD":5.118419271,"LONGITUD":-73.680685831},{"CIUDAD_DEPARTAMENTO":"Cogua - Cundinamarca","CIUDAD":"Cogua","DEPARTAMENTO":"Cundinamarca","LATITUD":5.103127532,"LONGITUD":-73.97536559},{"CIUDAD_DEPARTAMENTO":"Cota - Cundinamarca","CIUDAD":"Cota","DEPARTAMENTO":"Cundinamarca","LATITUD":4.76754674,"LONGITUD":-74.141558295},{"CIUDAD_DEPARTAMENTO":"Cucunuba - Cundinamarca","CIUDAD":"Cucunuba","DEPARTAMENTO":"Cundinamarca","LATITUD":5.230308105,"LONGITUD":-73.780018849},{"CIUDAD_DEPARTAMENTO":"El Colegio - Cundinamarca","CIUDAD":"El Colegio","DEPARTAMENTO":"Cundinamarca","LATITUD":4.556947085,"LONGITUD":-74.426584776},{"CIUDAD_DEPARTAMENTO":"El Peñon - Cundinamarca","CIUDAD":"El Peñon","DEPARTAMENTO":"Cundinamarca","LATITUD":5.261728244,"LONGITUD":-74.308305639},{"CIUDAD_DEPARTAMENTO":"El Rosal - Cundinamarca","CIUDAD":"El Rosal","DEPARTAMENTO":"Cundinamarca","LATITUD":4.879723016,"LONGITUD":-74.238022729},{"CIUDAD_DEPARTAMENTO":"Facatativa - Cundinamarca","CIUDAD":"Facatativa","DEPARTAMENTO":"Cundinamarca","LATITUD":4.834052334,"LONGITUD":-74.338022898},{"CIUDAD_DEPARTAMENTO":"Fomeque - Cundinamarca","CIUDAD":"Fomeque","DEPARTAMENTO":"Cundinamarca","LATITUD":4.528568462,"LONGITUD":-73.797052666},{"CIUDAD_DEPARTAMENTO":"Fosca - Cundinamarca","CIUDAD":"Fosca","DEPARTAMENTO":"Cundinamarca","LATITUD":4.316280072,"LONGITUD":-73.952867838},{"CIUDAD_DEPARTAMENTO":"Funza - Cundinamarca","CIUDAD":"Funza","DEPARTAMENTO":"Cundinamarca","LATITUD":4.743996711,"LONGITUD":-74.198659923},{"CIUDAD_DEPARTAMENTO":"Fuquene - Cundinamarca","CIUDAD":"Fuquene","DEPARTAMENTO":"Cundinamarca","LATITUD":5.416288902,"LONGITUD":-73.770598289},{"CIUDAD_DEPARTAMENTO":"Fusagasuga - Cundinamarca","CIUDAD":"Fusagasuga","DEPARTAMENTO":"Cundinamarca","LATITUD":4.323534028,"LONGITUD":-74.388591139},{"CIUDAD_DEPARTAMENTO":"Gachala - Cundinamarca","CIUDAD":"Gachala","DEPARTAMENTO":"Cundinamarca","LATITUD":4.65495513,"LONGITUD":-73.510553814},{"CIUDAD_DEPARTAMENTO":"Gachancipa - Cundinamarca","CIUDAD":"Gachancipa","DEPARTAMENTO":"Cundinamarca","LATITUD":5.01001953,"LONGITUD":-73.87671759},{"CIUDAD_DEPARTAMENTO":"Gacheta - Cundinamarca","CIUDAD":"Gacheta","DEPARTAMENTO":"Cundinamarca","LATITUD":4.867551134,"LONGITUD":-73.617732872},{"CIUDAD_DEPARTAMENTO":"Gama - Cundinamarca","CIUDAD":"Gama","DEPARTAMENTO":"Cundinamarca","LATITUD":4.723573464,"LONGITUD":-73.600544414},{"CIUDAD_DEPARTAMENTO":"Girardot - Cundinamarca","CIUDAD":"Girardot","DEPARTAMENTO":"Cundinamarca","LATITUD":4.338154518,"LONGITUD":-74.811439221},{"CIUDAD_DEPARTAMENTO":"Granada - Cundinamarca","CIUDAD":"Granada","DEPARTAMENTO":"Cundinamarca","LATITUD":4.523484884,"LONGITUD":-74.337246192},{"CIUDAD_DEPARTAMENTO":"Guacheta - Cundinamarca","CIUDAD":"Guacheta","DEPARTAMENTO":"Cundinamarca","LATITUD":5.387291542,"LONGITUD":-73.693282341},{"CIUDAD_DEPARTAMENTO":"Guaduas - Cundinamarca","CIUDAD":"Guaduas","DEPARTAMENTO":"Cundinamarca","LATITUD":5.173554764,"LONGITUD":-74.640146507},{"CIUDAD_DEPARTAMENTO":"Guasca - Cundinamarca","CIUDAD":"Guasca","DEPARTAMENTO":"Cundinamarca","LATITUD":4.801276832,"LONGITUD":-73.846434852},{"CIUDAD_DEPARTAMENTO":"Guataqui - Cundinamarca","CIUDAD":"Guataqui","DEPARTAMENTO":"Cundinamarca","LATITUD":4.516381655,"LONGITUD":-74.782577881},{"CIUDAD_DEPARTAMENTO":"Guatavita - Cundinamarca","CIUDAD":"Guatavita","DEPARTAMENTO":"Cundinamarca","LATITUD":4.91158717,"LONGITUD":-73.786485644},{"CIUDAD_DEPARTAMENTO":"Guayabal De Siquima - Cundinamarca","CIUDAD":"Guayabal De Siquima","DEPARTAMENTO":"Cundinamarca","LATITUD":4.866310254,"LONGITUD":-74.476770895},{"CIUDAD_DEPARTAMENTO":"Guayabetal - Cundinamarca","CIUDAD":"Guayabetal","DEPARTAMENTO":"Cundinamarca","LATITUD":4.231875945,"LONGITUD":-73.835439807},{"CIUDAD_DEPARTAMENTO":"Gutierrez - Cundinamarca","CIUDAD":"Gutierrez","DEPARTAMENTO":"Cundinamarca","LATITUD":4.166089563,"LONGITUD":-74.024652702},{"CIUDAD_DEPARTAMENTO":"Jerusalen - Cundinamarca","CIUDAD":"Jerusalen","DEPARTAMENTO":"Cundinamarca","LATITUD":4.571350254,"LONGITUD":-74.689158536},{"CIUDAD_DEPARTAMENTO":"Junin - Cundinamarca","CIUDAD":"Junin","DEPARTAMENTO":"Cundinamarca","LATITUD":4.705170789,"LONGITUD":-73.692478732},{"CIUDAD_DEPARTAMENTO":"La Calera - Cundinamarca","CIUDAD":"La Calera","DEPARTAMENTO":"Cundinamarca","LATITUD":4.700785443,"LONGITUD":-73.929399208},{"CIUDAD_DEPARTAMENTO":"La Mesa - Cundinamarca","CIUDAD":"La Mesa","DEPARTAMENTO":"Cundinamarca","LATITUD":4.650773167,"LONGITUD":-74.473217169},{"CIUDAD_DEPARTAMENTO":"La Palma - Cundinamarca","CIUDAD":"La Palma","DEPARTAMENTO":"Cundinamarca","LATITUD":5.333400646,"LONGITUD":-74.40807863},{"CIUDAD_DEPARTAMENTO":"La Peña - Cundinamarca","CIUDAD":"La Peña","DEPARTAMENTO":"Cundinamarca","LATITUD":5.20459882,"LONGITUD":-74.407866109},{"CIUDAD_DEPARTAMENTO":"La Vega - Cundinamarca","CIUDAD":"La Vega","DEPARTAMENTO":"Cundinamarca","LATITUD":4.978619842,"LONGITUD":-74.339360611},{"CIUDAD_DEPARTAMENTO":"Lenguazaque - Cundinamarca","CIUDAD":"Lenguazaque","DEPARTAMENTO":"Cundinamarca","LATITUD":5.303637171,"LONGITUD":-73.681532277},{"CIUDAD_DEPARTAMENTO":"Macheta - Cundinamarca","CIUDAD":"Macheta","DEPARTAMENTO":"Cundinamarca","LATITUD":5.040349198,"LONGITUD":-73.617382409},{"CIUDAD_DEPARTAMENTO":"Madrid - Cundinamarca","CIUDAD":"Madrid","DEPARTAMENTO":"Cundinamarca","LATITUD":4.75156751,"LONGITUD":-74.289630496},{"CIUDAD_DEPARTAMENTO":"Manta - Cundinamarca","CIUDAD":"Manta","DEPARTAMENTO":"Cundinamarca","LATITUD":4.976881151,"LONGITUD":-73.563137406},{"CIUDAD_DEPARTAMENTO":"Medina - Cundinamarca","CIUDAD":"Medina","DEPARTAMENTO":"Cundinamarca","LATITUD":4.484437919,"LONGITUD":-73.405984868},{"CIUDAD_DEPARTAMENTO":"Mosquera - Cundinamarca","CIUDAD":"Mosquera","DEPARTAMENTO":"Cundinamarca","LATITUD":4.672714223,"LONGITUD":-74.235731935},{"CIUDAD_DEPARTAMENTO":"Nariño - Cundinamarca","CIUDAD":"Nariño","DEPARTAMENTO":"Cundinamarca","LATITUD":4.407952015,"LONGITUD":-74.80565317},{"CIUDAD_DEPARTAMENTO":"Nemocon - Cundinamarca","CIUDAD":"Nemocon","DEPARTAMENTO":"Cundinamarca","LATITUD":5.093705358,"LONGITUD":-73.883802375},{"CIUDAD_DEPARTAMENTO":"Nilo - Cundinamarca","CIUDAD":"Nilo","DEPARTAMENTO":"Cundinamarca","LATITUD":4.294780933,"LONGITUD":-74.614694997},{"CIUDAD_DEPARTAMENTO":"Nimaima - Cundinamarca","CIUDAD":"Nimaima","DEPARTAMENTO":"Cundinamarca","LATITUD":5.121445325,"LONGITUD":-74.397370483},{"CIUDAD_DEPARTAMENTO":"Nocaima - Cundinamarca","CIUDAD":"Nocaima","DEPARTAMENTO":"Cundinamarca","LATITUD":5.066110761,"LONGITUD":-74.389754758},{"CIUDAD_DEPARTAMENTO":"Venecia - Cundinamarca","CIUDAD":"Venecia","DEPARTAMENTO":"Cundinamarca","LATITUD":4.063342074,"LONGITUD":-74.452597955},{"CIUDAD_DEPARTAMENTO":"Pacho - Cundinamarca","CIUDAD":"Pacho","DEPARTAMENTO":"Cundinamarca","LATITUD":5.168367634,"LONGITUD":-74.163365443},{"CIUDAD_DEPARTAMENTO":"Paime - Cundinamarca","CIUDAD":"Paime","DEPARTAMENTO":"Cundinamarca","LATITUD":5.387647345,"LONGITUD":-74.163956956},{"CIUDAD_DEPARTAMENTO":"Pandi - Cundinamarca","CIUDAD":"Pandi","DEPARTAMENTO":"Cundinamarca","LATITUD":4.180497268,"LONGITUD":-74.471121297},{"CIUDAD_DEPARTAMENTO":"Paratebueno - Cundinamarca","CIUDAD":"Paratebueno","DEPARTAMENTO":"Cundinamarca","LATITUD":4.368158959,"LONGITUD":-73.241661397},{"CIUDAD_DEPARTAMENTO":"Pasca - Cundinamarca","CIUDAD":"Pasca","DEPARTAMENTO":"Cundinamarca","LATITUD":4.293733611,"LONGITUD":-74.27396924},{"CIUDAD_DEPARTAMENTO":"Puerto Salgar - Cundinamarca","CIUDAD":"Puerto Salgar","DEPARTAMENTO":"Cundinamarca","LATITUD":5.619752748,"LONGITUD":-74.580192303},{"CIUDAD_DEPARTAMENTO":"Puli - Cundinamarca","CIUDAD":"Puli","DEPARTAMENTO":"Cundinamarca","LATITUD":4.691336253,"LONGITUD":-74.680744036},{"CIUDAD_DEPARTAMENTO":"Quebradanegra - Cundinamarca","CIUDAD":"Quebradanegra","DEPARTAMENTO":"Cundinamarca","LATITUD":5.09998103,"LONGITUD":-74.494510697},{"CIUDAD_DEPARTAMENTO":"Quetame - Cundinamarca","CIUDAD":"Quetame","DEPARTAMENTO":"Cundinamarca","LATITUD":4.334589044,"LONGITUD":-73.85264561},{"CIUDAD_DEPARTAMENTO":"Quipile - Cundinamarca","CIUDAD":"Quipile","DEPARTAMENTO":"Cundinamarca","LATITUD":4.726907976,"LONGITUD":-74.553599262},{"CIUDAD_DEPARTAMENTO":"Apulo - Cundinamarca","CIUDAD":"Apulo","DEPARTAMENTO":"Cundinamarca","LATITUD":4.537711619,"LONGITUD":-74.591246563},{"CIUDAD_DEPARTAMENTO":"Ricaurte - Cundinamarca","CIUDAD":"Ricaurte","DEPARTAMENTO":"Cundinamarca","LATITUD":4.307363489,"LONGITUD":-74.729434034},{"CIUDAD_DEPARTAMENTO":"San Antonio Del Tequendama - Cundinamarca","CIUDAD":"San Antonio Del Tequendama","DEPARTAMENTO":"Cundinamarca","LATITUD":4.599741357,"LONGITUD":-74.344903416},{"CIUDAD_DEPARTAMENTO":"San Bernardo - Cundinamarca","CIUDAD":"San Bernardo","DEPARTAMENTO":"Cundinamarca","LATITUD":4.140958464,"LONGITUD":-74.353976921},{"CIUDAD_DEPARTAMENTO":"San Cayetano - Cundinamarca","CIUDAD":"San Cayetano","DEPARTAMENTO":"Cundinamarca","LATITUD":5.314600423,"LONGITUD":-74.072320771},{"CIUDAD_DEPARTAMENTO":"San Francisco - Cundinamarca","CIUDAD":"San Francisco","DEPARTAMENTO":"Cundinamarca","LATITUD":4.964100703,"LONGITUD":-74.272171286},{"CIUDAD_DEPARTAMENTO":"San Juan De Rioseco - Cundinamarca","CIUDAD":"San Juan De Rioseco","DEPARTAMENTO":"Cundinamarca","LATITUD":4.814537831,"LONGITUD":-74.615259849},{"CIUDAD_DEPARTAMENTO":"Sasaima - Cundinamarca","CIUDAD":"Sasaima","DEPARTAMENTO":"Cundinamarca","LATITUD":4.946805263,"LONGITUD":-74.412309212},{"CIUDAD_DEPARTAMENTO":"Sesquile - Cundinamarca","CIUDAD":"Sesquile","DEPARTAMENTO":"Cundinamarca","LATITUD":5.000633875,"LONGITUD":-73.772065443},{"CIUDAD_DEPARTAMENTO":"Sibate - Cundinamarca","CIUDAD":"Sibate","DEPARTAMENTO":"Cundinamarca","LATITUD":4.465970004,"LONGITUD":-74.263289627},{"CIUDAD_DEPARTAMENTO":"Silvania - Cundinamarca","CIUDAD":"Silvania","DEPARTAMENTO":"Cundinamarca","LATITUD":4.436967141,"LONGITUD":-74.37050903},{"CIUDAD_DEPARTAMENTO":"Simijaca - Cundinamarca","CIUDAD":"Simijaca","DEPARTAMENTO":"Cundinamarca","LATITUD":5.509773128,"LONGITUD":-73.845191644},{"CIUDAD_DEPARTAMENTO":"Soacha - Cundinamarca","CIUDAD":"Soacha","DEPARTAMENTO":"Cundinamarca","LATITUD":4.581866267,"LONGITUD":-74.240296958},{"CIUDAD_DEPARTAMENTO":"Sopo - Cundinamarca","CIUDAD":"Sopo","DEPARTAMENTO":"Cundinamarca","LATITUD":4.888060112,"LONGITUD":-73.965875277},{"CIUDAD_DEPARTAMENTO":"Subachoque - Cundinamarca","CIUDAD":"Subachoque","DEPARTAMENTO":"Cundinamarca","LATITUD":4.970358034,"LONGITUD":-74.156899234},{"CIUDAD_DEPARTAMENTO":"Suesca - Cundinamarca","CIUDAD":"Suesca","DEPARTAMENTO":"Cundinamarca","LATITUD":5.122728461,"LONGITUD":-73.824273125},{"CIUDAD_DEPARTAMENTO":"Supata - Cundinamarca","CIUDAD":"Supata","DEPARTAMENTO":"Cundinamarca","LATITUD":5.061692703,"LONGITUD":-74.231383276},{"CIUDAD_DEPARTAMENTO":"Susa - Cundinamarca","CIUDAD":"Susa","DEPARTAMENTO":"Cundinamarca","LATITUD":5.440092358,"LONGITUD":-73.823925286},{"CIUDAD_DEPARTAMENTO":"Sutatausa - Cundinamarca","CIUDAD":"Sutatausa","DEPARTAMENTO":"Cundinamarca","LATITUD":5.242909347,"LONGITUD":-73.855403428},{"CIUDAD_DEPARTAMENTO":"Tabio - Cundinamarca","CIUDAD":"Tabio","DEPARTAMENTO":"Cundinamarca","LATITUD":4.951520046,"LONGITUD":-74.08449648},{"CIUDAD_DEPARTAMENTO":"Tausa - Cundinamarca","CIUDAD":"Tausa","DEPARTAMENTO":"Cundinamarca","LATITUD":5.170527212,"LONGITUD":-73.958195935},{"CIUDAD_DEPARTAMENTO":"Tena - Cundinamarca","CIUDAD":"Tena","DEPARTAMENTO":"Cundinamarca","LATITUD":4.666608192,"LONGITUD":-74.367649558},{"CIUDAD_DEPARTAMENTO":"Tenjo - Cundinamarca","CIUDAD":"Tenjo","DEPARTAMENTO":"Cundinamarca","LATITUD":4.838548601,"LONGITUD":-74.146802872},{"CIUDAD_DEPARTAMENTO":"Tibacuy - Cundinamarca","CIUDAD":"Tibacuy","DEPARTAMENTO":"Cundinamarca","LATITUD":4.321357899,"LONGITUD":-74.486672741},{"CIUDAD_DEPARTAMENTO":"Tibirita - Cundinamarca","CIUDAD":"Tibirita","DEPARTAMENTO":"Cundinamarca","LATITUD":5.084102682,"LONGITUD":-73.513625457},{"CIUDAD_DEPARTAMENTO":"Tocaima - Cundinamarca","CIUDAD":"Tocaima","DEPARTAMENTO":"Cundinamarca","LATITUD":4.452072974,"LONGITUD":-74.648644062},{"CIUDAD_DEPARTAMENTO":"Tocancipa - Cundinamarca","CIUDAD":"Tocancipa","DEPARTAMENTO":"Cundinamarca","LATITUD":4.968852913,"LONGITUD":-73.928870205},{"CIUDAD_DEPARTAMENTO":"Topaipi - Cundinamarca","CIUDAD":"Topaipi","DEPARTAMENTO":"Cundinamarca","LATITUD":5.355688386,"LONGITUD":-74.289639943},{"CIUDAD_DEPARTAMENTO":"Ubala - Cundinamarca","CIUDAD":"Ubala","DEPARTAMENTO":"Cundinamarca","LATITUD":4.803805182,"LONGITUD":-73.47654604},{"CIUDAD_DEPARTAMENTO":"Ubaque - Cundinamarca","CIUDAD":"Ubaque","DEPARTAMENTO":"Cundinamarca","LATITUD":4.500754182,"LONGITUD":-73.975645447},{"CIUDAD_DEPARTAMENTO":"Villa De San Diego De Ubate - Cundinamarca","CIUDAD":"Villa De San Diego De Ubate","DEPARTAMENTO":"Cundinamarca","LATITUD":5.316080652,"LONGITUD":-73.820105663},{"CIUDAD_DEPARTAMENTO":"Une - Cundinamarca","CIUDAD":"Une","DEPARTAMENTO":"Cundinamarca","LATITUD":4.244611163,"LONGITUD":-74.11187304},{"CIUDAD_DEPARTAMENTO":"Utica - Cundinamarca","CIUDAD":"Utica","DEPARTAMENTO":"Cundinamarca","LATITUD":5.192795708,"LONGITUD":-74.477800029},{"CIUDAD_DEPARTAMENTO":"Vergara - Cundinamarca","CIUDAD":"Vergara","DEPARTAMENTO":"Cundinamarca","LATITUD":5.131267542,"LONGITUD":-74.309792287},{"CIUDAD_DEPARTAMENTO":"Viani - Cundinamarca","CIUDAD":"Viani","DEPARTAMENTO":"Cundinamarca","LATITUD":4.914040619,"LONGITUD":-74.549366548},{"CIUDAD_DEPARTAMENTO":"Villagomez - Cundinamarca","CIUDAD":"Villagomez","DEPARTAMENTO":"Cundinamarca","LATITUD":5.270694636,"LONGITUD":-74.190743751},{"CIUDAD_DEPARTAMENTO":"Villapinzon - Cundinamarca","CIUDAD":"Villapinzon","DEPARTAMENTO":"Cundinamarca","LATITUD":5.227298709,"LONGITUD":-73.577259209},{"CIUDAD_DEPARTAMENTO":"Villeta - Cundinamarca","CIUDAD":"Villeta","DEPARTAMENTO":"Cundinamarca","LATITUD":5.011670402,"LONGITUD":-74.487647455},{"CIUDAD_DEPARTAMENTO":"Viota - Cundinamarca","CIUDAD":"Viota","DEPARTAMENTO":"Cundinamarca","LATITUD":4.436054105,"LONGITUD":-74.485433391},{"CIUDAD_DEPARTAMENTO":"Yacopi - Cundinamarca","CIUDAD":"Yacopi","DEPARTAMENTO":"Cundinamarca","LATITUD":5.591910157,"LONGITUD":-74.364808653},{"CIUDAD_DEPARTAMENTO":"Zipacon - Cundinamarca","CIUDAD":"Zipacon","DEPARTAMENTO":"Cundinamarca","LATITUD":4.75432173,"LONGITUD":-74.386734443},{"CIUDAD_DEPARTAMENTO":"Zipaquira - Cundinamarca","CIUDAD":"Zipaquira","DEPARTAMENTO":"Cundinamarca","LATITUD":5.06631685,"LONGITUD":-74.049603234},{"CIUDAD_DEPARTAMENTO":"Quibdo - Choco","CIUDAD":"Quibdo","DEPARTAMENTO":"Choco","LATITUD":5.7543229,"LONGITUD":-76.65015147},{"CIUDAD_DEPARTAMENTO":"Acandi - Choco","CIUDAD":"Acandi","DEPARTAMENTO":"Choco","LATITUD":8.383938499,"LONGITUD":-77.265602561},{"CIUDAD_DEPARTAMENTO":"Alto Baudo - Choco","CIUDAD":"Alto Baudo","DEPARTAMENTO":"Choco","LATITUD":5.636740989,"LONGITUD":-77.084215399},{"CIUDAD_DEPARTAMENTO":"Atrato - Choco","CIUDAD":"Atrato","DEPARTAMENTO":"Choco","LATITUD":5.525825084,"LONGITUD":-76.650643569},{"CIUDAD_DEPARTAMENTO":"Bagado - Choco","CIUDAD":"Bagado","DEPARTAMENTO":"Choco","LATITUD":5.503119772,"LONGITUD":-76.197969065},{"CIUDAD_DEPARTAMENTO":"Bahia Solano - Choco","CIUDAD":"Bahia Solano","DEPARTAMENTO":"Choco","LATITUD":6.162762775,"LONGITUD":-77.416535344},{"CIUDAD_DEPARTAMENTO":"Bajo Baudo - Choco","CIUDAD":"Bajo Baudo","DEPARTAMENTO":"Choco","LATITUD":4.492865435,"LONGITUD":-77.082713524},{"CIUDAD_DEPARTAMENTO":"Bojaya - Choco","CIUDAD":"Bojaya","DEPARTAMENTO":"Choco","LATITUD":6.474666885,"LONGITUD":-77.09933025},{"CIUDAD_DEPARTAMENTO":"El Canton Del San Pablo - Choco","CIUDAD":"El Canton Del San Pablo","DEPARTAMENTO":"Choco","LATITUD":5.359661967,"LONGITUD":-76.772556244},{"CIUDAD_DEPARTAMENTO":"Carmen Del Darien - Choco","CIUDAD":"Carmen Del Darien","DEPARTAMENTO":"Choco","LATITUD":7.033646541,"LONGITUD":-76.974230164},{"CIUDAD_DEPARTAMENTO":"Certegui - Choco","CIUDAD":"Certegui","DEPARTAMENTO":"Choco","LATITUD":5.389828229,"LONGITUD":-76.522642368},{"CIUDAD_DEPARTAMENTO":"Condoto - Choco","CIUDAD":"Condoto","DEPARTAMENTO":"Choco","LATITUD":5.070586101,"LONGITUD":-76.50701751},{"CIUDAD_DEPARTAMENTO":"El Carmen De Atrato - Choco","CIUDAD":"El Carmen De Atrato","DEPARTAMENTO":"Choco","LATITUD":5.810938364,"LONGITUD":-76.191894424},{"CIUDAD_DEPARTAMENTO":"El Litoral Del San Juan - Choco","CIUDAD":"El Litoral Del San Juan","DEPARTAMENTO":"Choco","LATITUD":4.272940191,"LONGITUD":-76.987858279},{"CIUDAD_DEPARTAMENTO":"Istmina - Choco","CIUDAD":"Istmina","DEPARTAMENTO":"Choco","LATITUD":4.586818665,"LONGITUD":-77.000907374},{"CIUDAD_DEPARTAMENTO":"Jurado - Choco","CIUDAD":"Jurado","DEPARTAMENTO":"Choco","LATITUD":7.103338868,"LONGITUD":-77.679736621},{"CIUDAD_DEPARTAMENTO":"Lloro - Choco","CIUDAD":"Lloro","DEPARTAMENTO":"Choco","LATITUD":5.585101179,"LONGITUD":-76.385444488},{"CIUDAD_DEPARTAMENTO":"Medio Atrato - Choco","CIUDAD":"Medio Atrato","DEPARTAMENTO":"Choco","LATITUD":6.033880098,"LONGITUD":-76.673469703},{"CIUDAD_DEPARTAMENTO":"Medio Baudo - Choco","CIUDAD":"Medio Baudo","DEPARTAMENTO":"Choco","LATITUD":5.110392243,"LONGITUD":-76.995930752},{"CIUDAD_DEPARTAMENTO":"Medio San Juan - Choco","CIUDAD":"Medio San Juan","DEPARTAMENTO":"Choco","LATITUD":4.621182739,"LONGITUD":-76.808618427},{"CIUDAD_DEPARTAMENTO":"Novita - Choco","CIUDAD":"Novita","DEPARTAMENTO":"Choco","LATITUD":4.853386627,"LONGITUD":-76.618236685},{"CIUDAD_DEPARTAMENTO":"Nuevo Belen De Bajira * - Choco","CIUDAD":"Nuevo Belen De Bajira *","DEPARTAMENTO":"Choco","LATITUD":7.439023,"LONGITUD":-76.844188},{"CIUDAD_DEPARTAMENTO":"Nuqui - Choco","CIUDAD":"Nuqui","DEPARTAMENTO":"Choco","LATITUD":5.591359844,"LONGITUD":-77.330574386},{"CIUDAD_DEPARTAMENTO":"Rio Iro - Choco","CIUDAD":"Rio Iro","DEPARTAMENTO":"Choco","LATITUD":5.190995015,"LONGITUD":-76.41996151},{"CIUDAD_DEPARTAMENTO":"Rio Quito - Choco","CIUDAD":"Rio Quito","DEPARTAMENTO":"Choco","LATITUD":5.567533337,"LONGITUD":-76.811570844},{"CIUDAD_DEPARTAMENTO":"Riosucio - Choco","CIUDAD":"Riosucio","DEPARTAMENTO":"Choco","LATITUD":7.375606,"LONGITUD":-77.35636},{"CIUDAD_DEPARTAMENTO":"San Jose Del Palmar - Choco","CIUDAD":"San Jose Del Palmar","DEPARTAMENTO":"Choco","LATITUD":4.958741345,"LONGITUD":-76.280023606},{"CIUDAD_DEPARTAMENTO":"Sipi - Choco","CIUDAD":"Sipi","DEPARTAMENTO":"Choco","LATITUD":4.594415157,"LONGITUD":-76.541944593},{"CIUDAD_DEPARTAMENTO":"Tado - Choco","CIUDAD":"Tado","DEPARTAMENTO":"Choco","LATITUD":5.26610158,"LONGITUD":-76.331095472},{"CIUDAD_DEPARTAMENTO":"Unguia - Choco","CIUDAD":"Unguia","DEPARTAMENTO":"Choco","LATITUD":8.117281079,"LONGITUD":-77.10372723},{"CIUDAD_DEPARTAMENTO":"Union Panamericana - Choco","CIUDAD":"Union Panamericana","DEPARTAMENTO":"Choco","LATITUD":5.281599258,"LONGITUD":-76.619627455},{"CIUDAD_DEPARTAMENTO":"Neiva - Huila","CIUDAD":"Neiva","DEPARTAMENTO":"Huila","LATITUD":2.993360046,"LONGITUD":-75.272362322},{"CIUDAD_DEPARTAMENTO":"Acevedo - Huila","CIUDAD":"Acevedo","DEPARTAMENTO":"Huila","LATITUD":1.709114446,"LONGITUD":-75.996641844},{"CIUDAD_DEPARTAMENTO":"Agrado - Huila","CIUDAD":"Agrado","DEPARTAMENTO":"Huila","LATITUD":2.26975042,"LONGITUD":-75.716322355},{"CIUDAD_DEPARTAMENTO":"Aipe - Huila","CIUDAD":"Aipe","DEPARTAMENTO":"Huila","LATITUD":3.243441923,"LONGITUD":-75.276706552},{"CIUDAD_DEPARTAMENTO":"Algeciras - Huila","CIUDAD":"Algeciras","DEPARTAMENTO":"Huila","LATITUD":2.49785068,"LONGITUD":-75.291349457},{"CIUDAD_DEPARTAMENTO":"Altamira - Huila","CIUDAD":"Altamira","DEPARTAMENTO":"Huila","LATITUD":2.07922808,"LONGITUD":-75.768582878},{"CIUDAD_DEPARTAMENTO":"Baraya - Huila","CIUDAD":"Baraya","DEPARTAMENTO":"Huila","LATITUD":3.135423634,"LONGITUD":-74.957977964},{"CIUDAD_DEPARTAMENTO":"Campoalegre - Huila","CIUDAD":"Campoalegre","DEPARTAMENTO":"Huila","LATITUD":2.658666675,"LONGITUD":-75.329438026},{"CIUDAD_DEPARTAMENTO":"Colombia - Huila","CIUDAD":"Colombia","DEPARTAMENTO":"Huila","LATITUD":3.262763564,"LONGITUD":-74.785161172},{"CIUDAD_DEPARTAMENTO":"Elias - Huila","CIUDAD":"Elias","DEPARTAMENTO":"Huila","LATITUD":2.022053305,"LONGITUD":-75.944305207},{"CIUDAD_DEPARTAMENTO":"Garzon - Huila","CIUDAD":"Garzon","DEPARTAMENTO":"Huila","LATITUD":2.172441496,"LONGITUD":-75.571312425},{"CIUDAD_DEPARTAMENTO":"Gigante - Huila","CIUDAD":"Gigante","DEPARTAMENTO":"Huila","LATITUD":2.371781539,"LONGITUD":-75.516997536},{"CIUDAD_DEPARTAMENTO":"Guadalupe - Huila","CIUDAD":"Guadalupe","DEPARTAMENTO":"Huila","LATITUD":1.984394016,"LONGITUD":-75.696935488},{"CIUDAD_DEPARTAMENTO":"Hobo - Huila","CIUDAD":"Hobo","DEPARTAMENTO":"Huila","LATITUD":2.541654161,"LONGITUD":-75.447810831},{"CIUDAD_DEPARTAMENTO":"Iquira - Huila","CIUDAD":"Iquira","DEPARTAMENTO":"Huila","LATITUD":2.691517773,"LONGITUD":-75.673831406},{"CIUDAD_DEPARTAMENTO":"Isnos - Huila","CIUDAD":"Isnos","DEPARTAMENTO":"Huila","LATITUD":1.945591321,"LONGITUD":-76.182047216},{"CIUDAD_DEPARTAMENTO":"La Argentina - Huila","CIUDAD":"La Argentina","DEPARTAMENTO":"Huila","LATITUD":2.156287619,"LONGITUD":-76.006794511},{"CIUDAD_DEPARTAMENTO":"La Plata - Huila","CIUDAD":"La Plata","DEPARTAMENTO":"Huila","LATITUD":2.328076586,"LONGITUD":-76.001172988},{"CIUDAD_DEPARTAMENTO":"Nataga - Huila","CIUDAD":"Nataga","DEPARTAMENTO":"Huila","LATITUD":2.576066285,"LONGITUD":-75.786937574},{"CIUDAD_DEPARTAMENTO":"Oporapa - Huila","CIUDAD":"Oporapa","DEPARTAMENTO":"Huila","LATITUD":2.061191362,"LONGITUD":-76.04110289},{"CIUDAD_DEPARTAMENTO":"Paicol - Huila","CIUDAD":"Paicol","DEPARTAMENTO":"Huila","LATITUD":2.40689827,"LONGITUD":-75.72803027},{"CIUDAD_DEPARTAMENTO":"Palermo - Huila","CIUDAD":"Palermo","DEPARTAMENTO":"Huila","LATITUD":2.914491967,"LONGITUD":-75.440661177},{"CIUDAD_DEPARTAMENTO":"Palestina - Huila","CIUDAD":"Palestina","DEPARTAMENTO":"Huila","LATITUD":1.68458076,"LONGITUD":-76.147855897},{"CIUDAD_DEPARTAMENTO":"Pital - Huila","CIUDAD":"Pital","DEPARTAMENTO":"Huila","LATITUD":2.259601773,"LONGITUD":-75.831951604},{"CIUDAD_DEPARTAMENTO":"Pitalito - Huila","CIUDAD":"Pitalito","DEPARTAMENTO":"Huila","LATITUD":1.848217185,"LONGITUD":-76.05217643},{"CIUDAD_DEPARTAMENTO":"Rivera - Huila","CIUDAD":"Rivera","DEPARTAMENTO":"Huila","LATITUD":2.79286115,"LONGITUD":-75.235368675},{"CIUDAD_DEPARTAMENTO":"Saladoblanco - Huila","CIUDAD":"Saladoblanco","DEPARTAMENTO":"Huila","LATITUD":2.100382849,"LONGITUD":-76.228978708},{"CIUDAD_DEPARTAMENTO":"San Agustin - Huila","CIUDAD":"San Agustin","DEPARTAMENTO":"Huila","LATITUD":1.924165493,"LONGITUD":-76.416565503},{"CIUDAD_DEPARTAMENTO":"Santa Maria - Huila","CIUDAD":"Santa Maria","DEPARTAMENTO":"Huila","LATITUD":2.926265937,"LONGITUD":-75.633597855},{"CIUDAD_DEPARTAMENTO":"Suaza - Huila","CIUDAD":"Suaza","DEPARTAMENTO":"Huila","LATITUD":1.870992095,"LONGITUD":-75.807984706},{"CIUDAD_DEPARTAMENTO":"Tarqui - Huila","CIUDAD":"Tarqui","DEPARTAMENTO":"Huila","LATITUD":2.130280544,"LONGITUD":-75.875348449},{"CIUDAD_DEPARTAMENTO":"Tesalia - Huila","CIUDAD":"Tesalia","DEPARTAMENTO":"Huila","LATITUD":2.526855132,"LONGITUD":-75.68259642},{"CIUDAD_DEPARTAMENTO":"Tello - Huila","CIUDAD":"Tello","DEPARTAMENTO":"Huila","LATITUD":3.030611777,"LONGITUD":-75.08536553},{"CIUDAD_DEPARTAMENTO":"Teruel - Huila","CIUDAD":"Teruel","DEPARTAMENTO":"Huila","LATITUD":2.851852692,"LONGITUD":-75.759889336},{"CIUDAD_DEPARTAMENTO":"Timana - Huila","CIUDAD":"Timana","DEPARTAMENTO":"Huila","LATITUD":1.950715226,"LONGITUD":-75.917576487},{"CIUDAD_DEPARTAMENTO":"Villavieja - Huila","CIUDAD":"Villavieja","DEPARTAMENTO":"Huila","LATITUD":3.287057875,"LONGITUD":-75.13838292},{"CIUDAD_DEPARTAMENTO":"Yaguara - Huila","CIUDAD":"Yaguara","DEPARTAMENTO":"Huila","LATITUD":2.646563339,"LONGITUD":-75.515926448},{"CIUDAD_DEPARTAMENTO":"Riohacha - La Guajira","CIUDAD":"Riohacha","DEPARTAMENTO":"La Guajira","LATITUD":11.242972141,"LONGITUD":-72.958763152},{"CIUDAD_DEPARTAMENTO":"Albania - La Guajira","CIUDAD":"Albania","DEPARTAMENTO":"La Guajira","LATITUD":11.228690485,"LONGITUD":-72.532096574},{"CIUDAD_DEPARTAMENTO":"Barrancas - La Guajira","CIUDAD":"Barrancas","DEPARTAMENTO":"La Guajira","LATITUD":10.948716767,"LONGITUD":-72.696968794},{"CIUDAD_DEPARTAMENTO":"Dibulla - La Guajira","CIUDAD":"Dibulla","DEPARTAMENTO":"La Guajira","LATITUD":11.090297147,"LONGITUD":-73.435687876},{"CIUDAD_DEPARTAMENTO":"Distraccion - La Guajira","CIUDAD":"Distraccion","DEPARTAMENTO":"La Guajira","LATITUD":10.925051067,"LONGITUD":-72.944440273},{"CIUDAD_DEPARTAMENTO":"El Molino - La Guajira","CIUDAD":"El Molino","DEPARTAMENTO":"La Guajira","LATITUD":10.636696455,"LONGITUD":-72.8858431},{"CIUDAD_DEPARTAMENTO":"Fonseca - La Guajira","CIUDAD":"Fonseca","DEPARTAMENTO":"La Guajira","LATITUD":10.8283716,"LONGITUD":-72.801817799},{"CIUDAD_DEPARTAMENTO":"Hatonuevo - La Guajira","CIUDAD":"Hatonuevo","DEPARTAMENTO":"La Guajira","LATITUD":11.099055817,"LONGITUD":-72.738424272},{"CIUDAD_DEPARTAMENTO":"La Jagua Del Pilar - La Guajira","CIUDAD":"La Jagua Del Pilar","DEPARTAMENTO":"La Guajira","LATITUD":10.4580941,"LONGITUD":-73.072091927},{"CIUDAD_DEPARTAMENTO":"Maicao - La Guajira","CIUDAD":"Maicao","DEPARTAMENTO":"La Guajira","LATITUD":11.381577644,"LONGITUD":-72.295008177},{"CIUDAD_DEPARTAMENTO":"Manaure - La Guajira","CIUDAD":"Manaure","DEPARTAMENTO":"La Guajira","LATITUD":11.605542633,"LONGITUD":-72.571603922},{"CIUDAD_DEPARTAMENTO":"San Juan Del Cesar - La Guajira","CIUDAD":"San Juan Del Cesar","DEPARTAMENTO":"La Guajira","LATITUD":10.81311496,"LONGITUD":-73.086599864},{"CIUDAD_DEPARTAMENTO":"Uribia - La Guajira","CIUDAD":"Uribia","DEPARTAMENTO":"La Guajira","LATITUD":11.999719855,"LONGITUD":-71.748826616},{"CIUDAD_DEPARTAMENTO":"Urumita - La Guajira","CIUDAD":"Urumita","DEPARTAMENTO":"La Guajira","LATITUD":10.494702101,"LONGITUD":-72.986239906},{"CIUDAD_DEPARTAMENTO":"Villanueva - La Guajira","CIUDAD":"Villanueva","DEPARTAMENTO":"La Guajira","LATITUD":10.583647554,"LONGITUD":-72.975202862},{"CIUDAD_DEPARTAMENTO":"Santa Marta - Magdalena","CIUDAD":"Santa Marta","DEPARTAMENTO":"Magdalena","LATITUD":11.121894357,"LONGITUD":-73.885278551},{"CIUDAD_DEPARTAMENTO":"Algarrobo - Magdalena","CIUDAD":"Algarrobo","DEPARTAMENTO":"Magdalena","LATITUD":10.253564748,"LONGITUD":-74.103230272},{"CIUDAD_DEPARTAMENTO":"Aracataca - Magdalena","CIUDAD":"Aracataca","DEPARTAMENTO":"Magdalena","LATITUD":10.644908765,"LONGITUD":-73.879722568},{"CIUDAD_DEPARTAMENTO":"Ariguani - Magdalena","CIUDAD":"Ariguani","DEPARTAMENTO":"Magdalena","LATITUD":9.834264955,"LONGITUD":-74.084600846},{"CIUDAD_DEPARTAMENTO":"Cerro De San Antonio - Magdalena","CIUDAD":"Cerro De San Antonio","DEPARTAMENTO":"Magdalena","LATITUD":10.313293299,"LONGITUD":-74.80834413},{"CIUDAD_DEPARTAMENTO":"Chivolo - Magdalena","CIUDAD":"Chivolo","DEPARTAMENTO":"Magdalena","LATITUD":10.099519608,"LONGITUD":-74.526066666},{"CIUDAD_DEPARTAMENTO":"Cienaga - Magdalena","CIUDAD":"Cienaga","DEPARTAMENTO":"Magdalena","LATITUD":10.857545516,"LONGITUD":-74.025004934},{"CIUDAD_DEPARTAMENTO":"Concordia - Magdalena","CIUDAD":"Concordia","DEPARTAMENTO":"Magdalena","LATITUD":10.232848013,"LONGITUD":-74.778101753},{"CIUDAD_DEPARTAMENTO":"El Banco - Magdalena","CIUDAD":"El Banco","DEPARTAMENTO":"Magdalena","LATITUD":9.114930635,"LONGITUD":-73.981054905},{"CIUDAD_DEPARTAMENTO":"El Piñon - Magdalena","CIUDAD":"El Piñon","DEPARTAMENTO":"Magdalena","LATITUD":10.343109882,"LONGITUD":-74.678177555},{"CIUDAD_DEPARTAMENTO":"El Reten - Magdalena","CIUDAD":"El Reten","DEPARTAMENTO":"Magdalena","LATITUD":10.659616964,"LONGITUD":-74.325159702},{"CIUDAD_DEPARTAMENTO":"Fundacion - Magdalena","CIUDAD":"Fundacion","DEPARTAMENTO":"Magdalena","LATITUD":10.459378178,"LONGITUD":-73.884065179},{"CIUDAD_DEPARTAMENTO":"Guamal - Magdalena","CIUDAD":"Guamal","DEPARTAMENTO":"Magdalena","LATITUD":9.248004673,"LONGITUD":-74.139680847},{"CIUDAD_DEPARTAMENTO":"Nueva Granada - Magdalena","CIUDAD":"Nueva Granada","DEPARTAMENTO":"Magdalena","LATITUD":9.735998134,"LONGITUD":-74.32840222},{"CIUDAD_DEPARTAMENTO":"Pedraza - Magdalena","CIUDAD":"Pedraza","DEPARTAMENTO":"Magdalena","LATITUD":10.154295459,"LONGITUD":-74.831780906},{"CIUDAD_DEPARTAMENTO":"Pijiño Del Carmen - Magdalena","CIUDAD":"Pijiño Del Carmen","DEPARTAMENTO":"Magdalena","LATITUD":9.530748654,"LONGITUD":-74.144765702},{"CIUDAD_DEPARTAMENTO":"Pivijay - Magdalena","CIUDAD":"Pivijay","DEPARTAMENTO":"Magdalena","LATITUD":10.433033993,"LONGITUD":-74.412511966},{"CIUDAD_DEPARTAMENTO":"Plato - Magdalena","CIUDAD":"Plato","DEPARTAMENTO":"Magdalena","LATITUD":9.76945611,"LONGITUD":-74.601815758},{"CIUDAD_DEPARTAMENTO":"Puebloviejo - Magdalena","CIUDAD":"Puebloviejo","DEPARTAMENTO":"Magdalena","LATITUD":10.847589014,"LONGITUD":-74.360579422},{"CIUDAD_DEPARTAMENTO":"Remolino - Magdalena","CIUDAD":"Remolino","DEPARTAMENTO":"Magdalena","LATITUD":10.648603506,"LONGITUD":-74.581068226},{"CIUDAD_DEPARTAMENTO":"Sabanas De San Angel - Magdalena","CIUDAD":"Sabanas De San Angel","DEPARTAMENTO":"Magdalena","LATITUD":10.105330275,"LONGITUD":-74.264439202},{"CIUDAD_DEPARTAMENTO":"Salamina - Magdalena","CIUDAD":"Salamina","DEPARTAMENTO":"Magdalena","LATITUD":10.51538178,"LONGITUD":-74.722969716},{"CIUDAD_DEPARTAMENTO":"San Sebastian De Buenavista - Magdalena","CIUDAD":"San Sebastian De Buenavista","DEPARTAMENTO":"Magdalena","LATITUD":9.380680272,"LONGITUD":-74.197979884},{"CIUDAD_DEPARTAMENTO":"San Zenon - Magdalena","CIUDAD":"San Zenon","DEPARTAMENTO":"Magdalena","LATITUD":9.306869548,"LONGITUD":-74.358516443},{"CIUDAD_DEPARTAMENTO":"Santa Ana - Magdalena","CIUDAD":"Santa Ana","DEPARTAMENTO":"Magdalena","LATITUD":9.503097215,"LONGITUD":-74.444193806},{"CIUDAD_DEPARTAMENTO":"Santa Barbara De Pinto - Magdalena","CIUDAD":"Santa Barbara De Pinto","DEPARTAMENTO":"Magdalena","LATITUD":9.484388135,"LONGITUD":-74.665211779},{"CIUDAD_DEPARTAMENTO":"Sitionuevo - Magdalena","CIUDAD":"Sitionuevo","DEPARTAMENTO":"Magdalena","LATITUD":10.89027616,"LONGITUD":-74.629660378},{"CIUDAD_DEPARTAMENTO":"Tenerife - Magdalena","CIUDAD":"Tenerife","DEPARTAMENTO":"Magdalena","LATITUD":9.924701267,"LONGITUD":-74.732630011},{"CIUDAD_DEPARTAMENTO":"Zapayan - Magdalena","CIUDAD":"Zapayan","DEPARTAMENTO":"Magdalena","LATITUD":10.117798928,"LONGITUD":-74.691154562},{"CIUDAD_DEPARTAMENTO":"Zona Bananera - Magdalena","CIUDAD":"Zona Bananera","DEPARTAMENTO":"Magdalena","LATITUD":10.796346583,"LONGITUD":-74.177983168},{"CIUDAD_DEPARTAMENTO":"Villavicencio - Meta","CIUDAD":"Villavicencio","DEPARTAMENTO":"Meta","LATITUD":4.09166877,"LONGITUD":-73.492915945},{"CIUDAD_DEPARTAMENTO":"Acacias - Meta","CIUDAD":"Acacias","DEPARTAMENTO":"Meta","LATITUD":3.943383008,"LONGITUD":-73.571351617},{"CIUDAD_DEPARTAMENTO":"Barranca De Upia - Meta","CIUDAD":"Barranca De Upia","DEPARTAMENTO":"Meta","LATITUD":4.519076127,"LONGITUD":-72.995489813},{"CIUDAD_DEPARTAMENTO":"Cabuyaro - Meta","CIUDAD":"Cabuyaro","DEPARTAMENTO":"Meta","LATITUD":4.315244759,"LONGITUD":-72.952688956},{"CIUDAD_DEPARTAMENTO":"Castilla La Nueva - Meta","CIUDAD":"Castilla La Nueva","DEPARTAMENTO":"Meta","LATITUD":3.805154089,"LONGITUD":-73.538866677},{"CIUDAD_DEPARTAMENTO":"Cubarral - Meta","CIUDAD":"Cubarral","DEPARTAMENTO":"Meta","LATITUD":3.834631516,"LONGITUD":-74.062324943},{"CIUDAD_DEPARTAMENTO":"Cumaral - Meta","CIUDAD":"Cumaral","DEPARTAMENTO":"Meta","LATITUD":4.232526389,"LONGITUD":-73.314775392},{"CIUDAD_DEPARTAMENTO":"El Calvario - Meta","CIUDAD":"El Calvario","DEPARTAMENTO":"Meta","LATITUD":4.353769888,"LONGITUD":-73.714416844},{"CIUDAD_DEPARTAMENTO":"El Castillo - Meta","CIUDAD":"El Castillo","DEPARTAMENTO":"Meta","LATITUD":3.60282633,"LONGITUD":-73.894452375},{"CIUDAD_DEPARTAMENTO":"El Dorado - Meta","CIUDAD":"El Dorado","DEPARTAMENTO":"Meta","LATITUD":3.706969785,"LONGITUD":-73.831618922},{"CIUDAD_DEPARTAMENTO":"Fuente De Oro - Meta","CIUDAD":"Fuente De Oro","DEPARTAMENTO":"Meta","LATITUD":3.382370124,"LONGITUD":-73.596254293},{"CIUDAD_DEPARTAMENTO":"Granada - Meta","CIUDAD":"Granada","DEPARTAMENTO":"Meta","LATITUD":3.441051399,"LONGITUD":-73.761154704},{"CIUDAD_DEPARTAMENTO":"Guamal - Meta","CIUDAD":"Guamal","DEPARTAMENTO":"Meta","LATITUD":3.947775585,"LONGITUD":-73.959838638},{"CIUDAD_DEPARTAMENTO":"Mapiripan - Meta","CIUDAD":"Mapiripan","DEPARTAMENTO":"Meta","LATITUD":3.117523361,"LONGITUD":-71.938056916},{"CIUDAD_DEPARTAMENTO":"Mesetas - Meta","CIUDAD":"Mesetas","DEPARTAMENTO":"Meta","LATITUD":3.154771201,"LONGITUD":-74.124548242},{"CIUDAD_DEPARTAMENTO":"La Macarena - Meta","CIUDAD":"La Macarena","DEPARTAMENTO":"Meta","LATITUD":2.161863917,"LONGITUD":-74.094880756},{"CIUDAD_DEPARTAMENTO":"Uribe - Meta","CIUDAD":"Uribe","DEPARTAMENTO":"Meta","LATITUD":3.047726858,"LONGITUD":-74.430661339},{"CIUDAD_DEPARTAMENTO":"Lejanias - Meta","CIUDAD":"Lejanias","DEPARTAMENTO":"Meta","LATITUD":3.614714873,"LONGITUD":-74.096284667},{"CIUDAD_DEPARTAMENTO":"Puerto Concordia - Meta","CIUDAD":"Puerto Concordia","DEPARTAMENTO":"Meta","LATITUD":2.752260112,"LONGITUD":-72.721094102},{"CIUDAD_DEPARTAMENTO":"Puerto Gaitan - Meta","CIUDAD":"Puerto Gaitan","DEPARTAMENTO":"Meta","LATITUD":4.005034467,"LONGITUD":-71.631574285},{"CIUDAD_DEPARTAMENTO":"Puerto Lopez - Meta","CIUDAD":"Puerto Lopez","DEPARTAMENTO":"Meta","LATITUD":4.014298921,"LONGITUD":-72.645704992},{"CIUDAD_DEPARTAMENTO":"Puerto Lleras - Meta","CIUDAD":"Puerto Lleras","DEPARTAMENTO":"Meta","LATITUD":3.193092925,"LONGITUD":-73.236714364},{"CIUDAD_DEPARTAMENTO":"Puerto Rico - Meta","CIUDAD":"Puerto Rico","DEPARTAMENTO":"Meta","LATITUD":2.758083657,"LONGITUD":-73.137801709},{"CIUDAD_DEPARTAMENTO":"Restrepo - Meta","CIUDAD":"Restrepo","DEPARTAMENTO":"Meta","LATITUD":4.204310977,"LONGITUD":-73.502260369},{"CIUDAD_DEPARTAMENTO":"San Carlos De Guaroa - Meta","CIUDAD":"San Carlos De Guaroa","DEPARTAMENTO":"Meta","LATITUD":3.84761678,"LONGITUD":-73.275834014},{"CIUDAD_DEPARTAMENTO":"San Juan De Arama - Meta","CIUDAD":"San Juan De Arama","DEPARTAMENTO":"Meta","LATITUD":3.289851171,"LONGITUD":-73.816352434},